[{"no":"1","name":"\u91d1\u6613\u4e8c\u90ce","birthplace":"\u79cb\u7530\u770c\u7fbd\u5f8c\u753a","image":"http:\/\/www.shogi.or.jp\/images\/player\/pro\/1.jpg","lat":"39.19932520","lng":"140.41292560","sex":"man"},{"no":"2","name":"\u6728\u6751\u7fa9\u96c4","birthplace":"\u6771\u4eac\u90fd\u58a8\u7530\u533a","image":"http:\/\/www.shogi.or.jp\/images\/player\/pro\/2.jpg","lat":"35.71040720","lng":"139.80155990","sex":"man"},{"no":"3","name":"\u91d1\u5b50\u91d1\u4e94\u90ce","birthplace":"\u6771\u4eac\u90fd","image":"http:\/\/www.shogi.or.jp\/images\/player\/pro\/3.jpg","lat":"35.64657460","lng":"139.65324950","sex":"man"},{"no":"4","name":"\u6e21\u8fba\u6771\u4e00","birthplace":"\u5343\u8449\u770c\u95a2\u5bbf\u753a","image":"http:\/\/www.shogi.or.jp\/images\/player\/pro\/4.jpg","lat":"36.09190248","lng":"139.78064055","sex":"man"},{"no":"5","name":"\u8429\u539f\u6df3","birthplace":"\u5175\u5eab\u770c\u5c3c\u5d0e\u5e02","image":"http:\/\/www.shogi.or.jp\/images\/player\/pro\/5.jpg","lat":"34.73373370","lng":"135.40637570","sex":"man"},{"no":"6","name":"\u4e2d\u4e95\u6368\u5409","birthplace":"\u5927\u962a\u5e9c\u9ad8\u69fb\u5e02","image":"http:\/\/www.shogi.or.jp\/images\/player\/substitute.png","lat":"34.84616110","lng":"135.61727380","sex":"man"},{"no":"7","name":"\u5927\u91ce\u6e90\u4e00","birthplace":"\u6771\u4eac\u90fd\u53f0\u6771\u533a","image":"http:\/\/www.shogi.or.jp\/images\/player\/pro\/7.jpg","lat":"35.71260660","lng":"139.77999790","sex":"man"},{"no":"8","name":"\u5fd7\u6ca2\u6625\u5409","birthplace":"\u795e\u5948\u5ddd\u770c\u5c0f\u7530\u539f\u5e02","image":"http:\/\/www.shogi.or.jp\/images\/player\/substitute.png","lat":"35.26456330","lng":"139.15215580","sex":"man"},{"no":"9","name":"\u5e02\u5ddd\u4e00\u90ce","birthplace":"\u6771\u4eac\u90fd\u6587\u4eac\u533a","image":"http:\/\/www.shogi.or.jp\/images\/player\/substitute.png","lat":"35.70805340","lng":"139.75221640","sex":"man"},{"no":"10","name":"\u5742\u53e3\u5141\u5f66","birthplace":"\u5317\u6d77\u9053\u65e5\u9ad8\u753a","image":"http:\/\/www.shogi.or.jp\/images\/player\/substitute.png","lat":"42.48030740","lng":"142.07437780","sex":"man"},{"no":"11","name":"\u585a\u7530\u6b63\u592b","birthplace":"\u6771\u4eac\u90fd\u6587\u4eac\u533a","image":"http:\/\/www.shogi.or.jp\/images\/player\/pro\/11.jpg","lat":35.708003399999996,"lng":139.7527164,"sex":"man"},{"no":"12","name":"\u68b6\u4e00\u90ce","birthplace":"\u6771\u4eac\u90fd\u53f0\u6771\u533a","image":"http:\/\/www.shogi.or.jp\/images\/player\/pro\/12.jpg","lat":35.7125566,"lng":139.7804979,"sex":"man"},{"no":"14","name":"\u52a0\u85e4\u6cbb\u90ce","birthplace":"\u6771\u4eac\u90fd\u6e2f\u533a","image":"http:\/\/www.shogi.or.jp\/images\/player\/pro\/14.jpg","lat":"35.65807280","lng":"139.75140450","sex":"man"},{"no":"15","name":"\u677e\u4e0b\u529b","birthplace":"\u5343\u8449\u770c\u7fd2\u5fd7\u91ce\u5e02","image":"http:\/\/www.shogi.or.jp\/images\/player\/pro\/15.jpg","lat":"35.68161270","lng":"140.02723660","sex":"man"},{"no":"16","name":"\u5965\u91ce\u57fa\u82b3","birthplace":"\u6771\u4eac\u90fd\u65b0\u5bbf\u533a","image":"http:\/\/www.shogi.or.jp\/images\/player\/substitute.png","lat":"35.69388720","lng":"139.70341020","sex":"man"},{"no":"17","name":"\u5c0f\u5800\u6e05\u4e00","birthplace":"\u795e\u5948\u5ddd\u770c\u6a2a\u6d5c\u5e02","image":"http:\/\/www.shogi.or.jp\/images\/player\/pro\/17.jpg","lat":"35.44466850","lng":"139.64215290","sex":"man"},{"no":"19","name":"\u9ad8\u5cf6\u4e00\u5c90\u4ee3","birthplace":"\u5927\u962a\u5e9c\u516b\u5c3e\u5e02","image":"http:\/\/www.shogi.or.jp\/images\/player\/pro\/19.jpg","lat":"34.62686600","lng":"135.60097710","sex":"man"},{"no":"20","name":"\u8352\u5dfb\u4e09\u4e4b","birthplace":"\u6771\u4eac\u90fd","image":"http:\/\/www.shogi.or.jp\/images\/player\/pro\/20.jpg","lat":35.6465246,"lng":139.65374949999998,"sex":"man"},{"no":"21","name":"\u6c38\u6ca2\u52dd\u96c4","birthplace":"\u6803\u6728\u770c\u4f50\u91ce\u5e02","image":"http:\/\/www.shogi.or.jp\/images\/player\/substitute.png","lat":"36.31435170","lng":"139.57834090","sex":"man"},{"no":"22","name":"\u52a0\u85e4\u6075\u4e09","birthplace":"\u6771\u4eac\u90fd\u6c5f\u6771\u533a","image":"http:\/\/www.shogi.or.jp\/images\/player\/substitute.png","lat":"35.67307840","lng":"139.81696810","sex":"man"},{"no":"23","name":"\u5ca1\u5d0e\u53f2\u660e","birthplace":"\u5927\u962a\u5e9c\u5927\u962a\u5e02","image":"http:\/\/www.shogi.or.jp\/images\/player\/substitute.png","lat":"34.68107500","lng":"135.50978710","sex":"man"},{"no":"24","name":"\u5317\u696f\u4fee\u54c9","birthplace":"\u5c71\u5f62\u770c\u9db4\u5ca1\u5e02","image":"http:\/\/www.shogi.or.jp\/images\/player\/pro\/24.jpg","lat":"38.72719940","lng":"139.82673040","sex":"man"},{"no":"25","name":"\u677e\u7530\u8302\u5f79","birthplace":"\u9ce5\u53d6\u770c\u9ce5\u53d6\u5e02","image":"http:\/\/www.shogi.or.jp\/images\/player\/pro\/25.jpg","lat":"35.49439640","lng":"134.22208170","sex":"man"},{"no":"26","name":"\u5927\u5c71\u5eb7\u6674","birthplace":"\u5ca1\u5c71\u770c\u5009\u6577\u5e02","image":"http:\/\/www.shogi.or.jp\/images\/player\/pro\/26.jpg","lat":"34.58500730","lng":"133.77208940","sex":"man"},{"no":"27","name":"\u5c71\u672c\u6b66\u96c4","birthplace":"\u5bcc\u5c71\u770c","image":"http:\/\/www.shogi.or.jp\/images\/player\/pro\/27.jpg","lat":"36.69601510","lng":"137.21368220","sex":"man"},{"no":"28","name":"\u5c71\u4e2d\u548c\u6b63","birthplace":"\u5ca1\u5c71\u770c\u5ca1\u5c71\u5e02","image":"http:\/\/www.shogi.or.jp\/images\/player\/substitute.png","lat":"34.65513430","lng":"133.91959090","sex":"man"},{"no":"29","name":"\u677f\u8c37\u56db\u90ce","birthplace":"\u4e09\u91cd\u770c\u4f0a\u52e2\u5e02","image":"http:\/\/www.shogi.or.jp\/images\/player\/pro\/29.jpg","lat":"34.48751670","lng":"136.70933620","sex":"man"},{"no":"30","name":"\u672c\u9593\u723d\u60a6","birthplace":"\u5927\u962a\u5e9c\u679a\u65b9\u5e02","image":"http:\/\/www.shogi.or.jp\/images\/player\/substitute.png","lat":"34.81433990","lng":"135.65065810","sex":"man"},{"no":"31","name":"\u9ad8\u67f3\u654f\u592b","birthplace":"\u6771\u4eac\u90fd","image":"http:\/\/www.shogi.or.jp\/images\/player\/pro\/31.jpg","lat":35.6465246,"lng":139.65374949999998,"sex":"man"},{"no":"32","name":"\u5e83\u6d25\u4e45\u96c4","birthplace":"\u798f\u5ca1\u770c\u798f\u5ca1\u5e02","image":"http:\/\/www.shogi.or.jp\/images\/player\/pro\/32.jpg","lat":"33.59136010","lng":"130.41487820","sex":"man"},{"no":"33","name":"\u5409\u7530\u516d\u5f66","birthplace":"\u6771\u4eac\u90fd\u4e2d\u592e\u533a","image":"http:\/\/www.shogi.or.jp\/images\/player\/substitute.png","lat":"35.67071080","lng":"139.77210790","sex":"man"},{"no":"34","name":"\u5bcc\u6ca2\u5e79\u96c4","birthplace":"\u798f\u5cf6\u770c","image":"http:\/\/www.shogi.or.jp\/images\/player\/substitute.png","lat":"37.40054510","lng":"140.36005500","sex":"man"},{"no":"36","name":"\u661f\u7530\u5553\u4e09","birthplace":"\u5927\u962a\u5e9c\u5927\u962a\u5e02","image":"http:\/\/www.shogi.or.jp\/images\/player\/pro\/36.jpg","lat":34.681025,"lng":135.5102871,"sex":"man"},{"no":"37","name":"\u5357\u53e3\u7e41\u4e00","birthplace":"\u4eac\u90fd\u5e9c\u6728\u6d25\u753a","image":"http:\/\/www.shogi.or.jp\/images\/player\/pro\/37.jpg","lat":"34.73683925","lng":"135.81743057","sex":"man"},{"no":"38","name":"\u5317\u6751\u79c0\u6cbb\u90ce","birthplace":"\u5927\u962a\u5e9c\u5927\u962a\u5e02","image":"http:\/\/www.shogi.or.jp\/images\/player\/substitute.png","lat":34.681025,"lng":135.5102871,"sex":"man"},{"no":"39","name":"\u82b1\u6751\u5143\u53f8","birthplace":"\u9759\u5ca1\u770c\u6d5c\u677e\u5e02","image":"http:\/\/www.shogi.or.jp\/images\/player\/pro\/39.jpg","lat":"34.71078690","lng":"137.72610370","sex":"man"},{"no":"40","name":"\u5c71\u5ddd\u6b21\u5f66","birthplace":"\u6771\u4eac\u90fd","image":"http:\/\/www.shogi.or.jp\/images\/player\/substitute.png","lat":35.6465246,"lng":139.65374949999998,"sex":"man"},{"no":"41","name":"\u4f50\u702c\u52c7\u6b21","birthplace":"\u5343\u8449\u770c\u677e\u5c3e\u753a","image":"http:\/\/www.shogi.or.jp\/images\/player\/pro\/41.jpg","lat":"35.63824995","lng":"140.45567520","sex":"man"},{"no":"42","name":"\u52a0\u85e4\u535a\u4e8c","birthplace":"\u611b\u77e5\u770c\u540d\u53e4\u5c4b\u5e02","image":"http:\/\/www.shogi.or.jp\/images\/player\/pro\/42.jpg","lat":"35.16860040","lng":"136.91018390","sex":"man"},{"no":"43","name":"\u4e38\u7530\u7950\u4e09","birthplace":"\u9577\u91ce\u770c\u9577\u91ce\u5e02","image":"http:\/\/www.shogi.or.jp\/images\/player\/pro\/43.jpg","lat":"36.64858580","lng":"138.19477310","sex":"man"},{"no":"44","name":"\u7058\u84ee\u7167","birthplace":"\u5fb3\u5cf6\u770c","image":"http:\/\/www.shogi.or.jp\/images\/player\/pro\/44.jpg","lat":"34.07027500","lng":"134.55486250","sex":"man"},{"no":"45","name":"\u5e73\u91ce\u5e83\u5409","birthplace":"\u5343\u8449\u770c\u677e\u6238\u5e02","image":"http:\/\/www.shogi.or.jp\/images\/player\/substitute.png","lat":"35.78765090","lng":"139.90309320","sex":"man"},{"no":"46","name":"\u4e94\u5341\u5d50\u8c4a\u4e00","birthplace":"\u5317\u6d77\u9053\u672d\u5e4c\u5e02","image":"http:\/\/www.shogi.or.jp\/images\/player\/pro\/46.jpg","lat":"43.05528160","lng":"141.34107760","sex":"man"},{"no":"47","name":"\u6e05\u91ce\u9759\u7537","birthplace":"\u65b0\u6f5f\u770c\u65b0\u767a\u7530\u5e02","image":"http:\/\/www.shogi.or.jp\/images\/player\/substitute.png","lat":"37.94807390","lng":"139.32729240","sex":"man"},{"no":"48","name":"\u4f50\u85e4\u8c4a","birthplace":"\u6771\u4eac\u90fd\u53f0\u6771\u533a","image":"http:\/\/www.shogi.or.jp\/images\/player\/substitute.png","lat":35.7125566,"lng":139.7804979,"sex":"man"},{"no":"49","name":"\u6728\u5ddd\u8cb4\u4e00","birthplace":"\u6771\u4eac\u90fd\u65b0\u5bbf\u533a","image":"http:\/\/www.shogi.or.jp\/images\/player\/substitute.png","lat":35.6938372,"lng":139.7039102,"sex":"man"},{"no":"50","name":"\u4e0b\u5e73\u5e78\u7537","birthplace":"\u6771\u4eac\u90fd\u65b0\u5bbf\u533a","image":"http:\/\/www.shogi.or.jp\/images\/player\/substitute.png","lat":35.6938372,"lng":139.7039102,"sex":"man"},{"no":"51","name":"\u4e8c\u898b\u656c\u4e09","birthplace":"\u5927\u962a\u5e9c","image":"http:\/\/www.shogi.or.jp\/images\/player\/substitute.png","lat":34.681025,"lng":135.5102871,"sex":"man"},{"no":"52","name":"\u897f\u672c\u99a8","birthplace":"\u5927\u962a\u5e9c\u5927\u962a\u5e02\u798f\u5cf6\u533a","image":"http:\/\/www.shogi.or.jp\/images\/player\/pro\/52.jpg","lat":"34.69233670","lng":"135.47220090","sex":"man"},{"no":"53","name":"\u795e\u7530\u93ae\u96c4","birthplace":"\u5175\u5eab\u770c\u897f\u5bae\u5e02","image":"http:\/\/www.shogi.or.jp\/images\/player\/substitute.png","lat":"34.73787670","lng":"135.34152240","sex":"man"},{"no":"54","name":"\u718a\u8c37\u9054\u4eba","birthplace":"\u5927\u962a\u5e9c\u5927\u962a\u5e02","image":"http:\/\/www.shogi.or.jp\/images\/player\/pro\/54.jpg","lat":34.681025,"lng":135.5102871,"sex":"man"},{"no":"55","name":"\u5897\u7530\u654f\u4e8c","birthplace":"\u6771\u4eac\u90fd","image":"http:\/\/www.shogi.or.jp\/images\/player\/substitute.png","lat":35.6465246,"lng":139.65374949999998,"sex":"man"},{"no":"56","name":"\u6d45\u6cbc\u4e00","birthplace":"\u6771\u4eac\u90fd\u516b\u4e08\u5cf6","image":"http:\/\/www.shogi.or.jp\/images\/player\/pro\/56.jpg","lat":"33.11274210","lng":"139.78906710","sex":"man"},{"no":"57","name":"\u4e8c\u4e0a\u9054\u4e5f","birthplace":"\u5317\u6d77\u9053\u51fd\u9928\u5e02","image":"http:\/\/www.shogi.or.jp\/images\/player\/pro\/57.jpg","lat":"41.76867380","lng":"140.72892400","sex":"man"},{"no":"58","name":"\u6a4b\u672c\u4e09\u6cbb","birthplace":"\u5175\u5eab\u770c\u5c3c\u5d0e\u5e02","image":"http:\/\/www.shogi.or.jp\/images\/player\/pro\/58.jpg","lat":34.7336837,"lng":135.4068757,"sex":"man"},{"no":"59","name":"\u6d25\u6751\u5e38\u5409","birthplace":"\u795e\u5948\u5ddd\u770c\u6a2a\u6d5c\u5e02","image":"http:\/\/www.shogi.or.jp\/images\/player\/substitute.png","lat":35.4446185,"lng":139.6426529,"sex":"man"},{"no":"60","name":"\u5317\u6751\u660c\u7537","birthplace":"\u5317\u6d77\u9053\u51fd\u9928\u5e02","image":"http:\/\/www.shogi.or.jp\/images\/player\/pro\/60.jpg","lat":41.7686238,"lng":140.729424,"sex":"man"},{"no":"61","name":"\u95a2\u6839\u8302","birthplace":"\u6771\u4eac\u90fd\u845b\u98fe\u533a","image":"http:\/\/www.shogi.or.jp\/images\/player\/pro\/61.jpg","lat":"35.74349360","lng":"139.84722070","sex":"man"},{"no":"62","name":"\u5927\u53cb\u6607","birthplace":"\u5bae\u57ce\u770c\u4ed9\u53f0\u5e02","image":"http:\/\/www.shogi.or.jp\/images\/player\/pro\/62.jpg","lat":"38.26907550","lng":"140.87017170","sex":"man"},{"no":"63","name":"\u4f50\u85e4\u5e84\u5e73","birthplace":"\u65b0\u6f5f\u770c\u5dfb\u753a","image":"http:\/\/www.shogi.or.jp\/images\/player\/pro\/63.jpg","lat":"37.75267286","lng":"139.06893357","sex":"man"},{"no":"64","name":"\u52a0\u85e4\u4e00\u4e8c\u4e09","birthplace":"\u798f\u5ca1\u770c\u5609\u9ebb\u5e02","image":"http:\/\/www.shogi.or.jp\/images\/player\/pro\/64.jpg","lat":"33.59843420","lng":"130.71918800","sex":"man"},{"no":"65","name":"\u5bae\u5742\u5e78\u96c4","birthplace":"\u6771\u4eac\u90fd","image":"http:\/\/www.shogi.or.jp\/images\/player\/pro\/65.jpg","lat":35.6465246,"lng":139.65374949999998,"sex":"man"},{"no":"66","name":"\u6709\u5409\u9053\u592b","birthplace":"\u5ca1\u5c71\u770c\u5099\u524d\u5e02","image":"http:\/\/www.shogi.or.jp\/images\/player\/pro\/66.jpg","lat":"34.74516170","lng":"134.18805160","sex":"man"},{"no":"67","name":"\u9577\u8c37\u90e8\u4e45\u96c4","birthplace":"\u5343\u8449\u770c\u5343\u8449\u5e02","image":"http:\/\/www.shogi.or.jp\/images\/player\/pro\/67.jpg","lat":"35.60743450","lng":"140.12309490","sex":"man"},{"no":"68","name":"\u82b9\u6ca2\u535a\u6587","birthplace":"\u9759\u5ca1\u770c\u6cbc\u6d25\u5e02","image":"http:\/\/www.shogi.or.jp\/images\/player\/pro\/68.jpg","lat":"35.09558670","lng":"138.86349220","sex":"man"},{"no":"69","name":"\u95a2\u5c4b\u559c\u4ee3\u4f5c","birthplace":"\u5343\u8449\u770c\u8302\u539f\u5e02","image":"http:\/\/www.shogi.or.jp\/images\/player\/pro\/69.jpg","lat":"35.42844940","lng":"140.28802920","sex":"man"},{"no":"71","name":"\u5927\u6751\u548c\u4e45","birthplace":"\u611b\u77e5\u770c\u540d\u53e4\u5c4b\u5e02","image":"http:\/\/www.shogi.or.jp\/images\/player\/pro\/71.jpg","lat":35.1685504,"lng":136.91068389999998,"sex":"man"},{"no":"72","name":"\u5927\u539f\u82f1\u4e8c","birthplace":"\u9ad8\u77e5\u770c\u8d8a\u77e5\u753a","image":"http:\/\/www.shogi.or.jp\/images\/player\/substitute.png","lat":"33.53291910","lng":"133.25199290","sex":"man"},{"no":"73","name":"\u5271\u6301\u677e\u4e8c","birthplace":"\u6771\u4eac\u90fd","image":"http:\/\/www.shogi.or.jp\/images\/player\/pro\/73.jpg","lat":35.6465246,"lng":139.65374949999998,"sex":"man"},{"no":"74","name":"\u4f50\u85e4\u5927\u4e94\u90ce","birthplace":"\u5317\u6d77\u9053\u51fd\u9928\u5e02","image":"http:\/\/www.shogi.or.jp\/images\/player\/pro\/74.jpg","lat":41.7686238,"lng":140.729424,"sex":"man"},{"no":"75","name":"\u5409\u7530\u5229\u52dd","birthplace":"\u611b\u77e5\u770c\u540d\u53e4\u5c4b\u5e02","image":"http:\/\/www.shogi.or.jp\/images\/player\/pro\/75.jpg","lat":35.1685504,"lng":136.91068389999998,"sex":"man"},{"no":"76","name":"\u5317\u6751\u6587\u7537","birthplace":"\u4e09\u91cd\u770c\u9234\u9e7f\u5e02","image":"http:\/\/www.shogi.or.jp\/images\/player\/pro\/76.jpg","lat":"34.88209280","lng":"136.58388390","sex":"man"},{"no":"77","name":"\u5185\u85e4\u570b\u96c4","birthplace":"\u5175\u5eab\u770c\u795e\u6238\u5e02","image":"http:\/\/www.shogi.or.jp\/images\/player\/pro\/77.jpg","lat":"34.69509030","lng":"135.19774680","sex":"man"},{"no":"78","name":"\u4f0a\u9054\u5eb7\u592b","birthplace":"\u5927\u962a\u5e9c\u5927\u962a\u5e02","image":"http:\/\/www.shogi.or.jp\/images\/player\/pro\/78.jpg","lat":34.681025,"lng":135.5102871,"sex":"man"},{"no":"80","name":"\u6728\u6751\u5609\u5b5d","birthplace":"\u6771\u4eac\u90fd\u4e2d\u592e\u533a","image":"http:\/\/www.shogi.or.jp\/images\/player\/pro\/80.jpg","lat":35.6706608,"lng":139.7726079,"sex":"man"},{"no":"81","name":"\u5c71\u53e3\u5343\u5dba","birthplace":"\u8328\u57ce\u770c\u6c34\u6238\u5e02","image":"http:\/\/www.shogi.or.jp\/images\/player\/pro\/81.jpg","lat":"36.36585820","lng":"140.47159590","sex":"man"},{"no":"82","name":"\u6728\u6751\u7fa9\u5fb3","birthplace":"\u6771\u4eac\u90fd","image":"http:\/\/www.shogi.or.jp\/images\/player\/pro\/82.jpg","lat":35.6465246,"lng":139.65374949999998,"sex":"man"},{"no":"83","name":"\u9ad8\u5cf6\u5f18\u5149","birthplace":"\u5927\u962a\u5e9c\u516b\u5c3e\u5e02","image":"http:\/\/www.shogi.or.jp\/images\/player\/substitute.png","lat":34.626816,"lng":135.60147709999998,"sex":"man"},{"no":"84","name":"\u677f\u8c37\u9032","birthplace":"\u611b\u77e5\u770c\u540d\u53e4\u5c4b\u5e02","image":"http:\/\/www.shogi.or.jp\/images\/player\/pro\/84.jpg","lat":35.1685504,"lng":136.91068389999998,"sex":"man"},{"no":"86","name":"\u5927\u5185\u5ef6\u4ecb","birthplace":"\u6771\u4eac\u90fd\u6e2f\u533a","image":"http:\/\/www.shogi.or.jp\/images\/player\/pro\/86.jpg","lat":35.6580228,"lng":139.7519045,"sex":"man"},{"no":"87","name":"\u897f\u6751\u4e00\u7fa9","birthplace":"\u611b\u77e5\u770c\u540d\u53e4\u5c4b\u5e02","image":"http:\/\/www.shogi.or.jp\/images\/player\/pro\/87.jpg","lat":35.1685504,"lng":136.91068389999998,"sex":"man"},{"no":"88","name":"\u6728\u4e0b\u6643","birthplace":"\u5927\u962a\u5e9c\u5927\u962a\u5e02\u6d6a\u901f\u533a","image":"http:\/\/www.shogi.or.jp\/images\/player\/pro\/88.jpg","lat":"34.65936350","lng":"135.49961900","sex":"man"},{"no":"89","name":"\u5c71\u53e3\u82f1\u592b","birthplace":"\u5e83\u5cf6\u770c\u5449\u5e02","image":"http:\/\/www.shogi.or.jp\/images\/player\/pro\/89.jpg","lat":"34.24864830","lng":"132.56544000","sex":"man"},{"no":"90","name":"\u685c\u4e95\u6607","birthplace":"\u7fa4\u99ac\u770c\u9577\u91ce\u539f\u753a","image":"http:\/\/www.shogi.or.jp\/images\/player\/pro\/90.jpg","lat":"36.54422690","lng":"138.64988680","sex":"man"},{"no":"91","name":"\u7530\u8fba\u4e00\u90ce","birthplace":"\u6771\u4eac\u90fd\u6c5f\u6771\u533a","image":"http:\/\/www.shogi.or.jp\/images\/player\/pro\/91.jpg","lat":35.6730284,"lng":139.81746809999999,"sex":"man"},{"no":"93","name":"\u6850\u5c71\u6e05\u6f84","birthplace":"\u5948\u826f\u770c\u4e0b\u5e02\u753a","image":"http:\/\/www.shogi.or.jp\/images\/player\/pro\/93.jpg","lat":"34.36098400","lng":"135.79185720","sex":"man"},{"no":"95","name":"\u6cb3\u53e3\u4fca\u5f66","birthplace":"\u795e\u5948\u5ddd\u770c\u6a2a\u9808\u8cc0\u5e02","image":"http:\/\/www.shogi.or.jp\/images\/player\/pro\/95.jpg","lat":"35.28134290","lng":"139.67220010","sex":"man"},{"no":"96","name":"\u52dd\u6d66\u4fee","birthplace":"\u5317\u6d77\u9053\u7d0b\u5225\u5e02","image":"http:\/\/www.shogi.or.jp\/images\/player\/pro\/96.jpg","lat":"44.35658360","lng":"143.35409460","sex":"man"},{"no":"97","name":"\u77f3\u7530\u548c\u96c4","birthplace":"\u611b\u77e5\u770c\u5ca1\u5d0e\u5e02","image":"http:\/\/www.shogi.or.jp\/images\/player\/pro\/97.jpg","lat":"34.95437050","lng":"137.17433170","sex":"man"},{"no":"98","name":"\u82e5\u677e\u653f\u548c","birthplace":"\u5175\u5eab\u770c\u795e\u6238\u5e02\u9577\u7530\u533a","image":"http:\/\/www.shogi.or.jp\/images\/player\/pro\/98.jpg","lat":"34.66601250","lng":"135.15083170","sex":"man"},{"no":"99","name":"\u68ee\u5b89\u79c0\u5149","birthplace":"\u5ca1\u5c71\u770c\u7b20\u5ca1\u5e02","image":"http:\/\/www.shogi.or.jp\/images\/player\/pro\/99.jpg","lat":"34.50717130","lng":"133.50744310","sex":"man"},{"no":"101","name":"\u6edd\u8aa0\u4e00\u90ce","birthplace":"\u5927\u962a\u5e9c\u5927\u962a\u5e02","image":"http:\/\/www.shogi.or.jp\/images\/player\/pro\/101.jpg","lat":34.681025,"lng":135.5102871,"sex":"man"},{"no":"102","name":"\u6c60\u7530\u4fee\u4e00","birthplace":"\u9752\u68ee\u770c\u516b\u6238\u5e02","image":"http:\/\/www.shogi.or.jp\/images\/player\/pro\/102.jpg","lat":"40.51228340","lng":"141.48839830","sex":"man"},{"no":"103","name":"\u91ce\u672c\u864e\u6b21","birthplace":"\u9577\u91ce\u770c","image":"http:\/\/www.shogi.or.jp\/images\/player\/pro\/103.jpg","lat":36.6485358,"lng":138.19527309999998,"sex":"man"},{"no":"104","name":"\u7530\u4e2d\u9b41\u79c0","birthplace":"\u5927\u962a\u5e9c\u679a\u65b9\u5e02","image":"http:\/\/www.shogi.or.jp\/images\/player\/pro\/104.jpg","lat":34.8142899,"lng":135.65115809999998,"sex":"man"},{"no":"105","name":"\u576a\u5185\u5229\u5e78","birthplace":"\u5175\u5eab\u770c\u795e\u6238\u5e02","image":"http:\/\/www.shogi.or.jp\/images\/player\/pro\/105.jpg","lat":34.695040299999995,"lng":135.1982468,"sex":"man"},{"no":"106","name":"\u4f50\u85e4\u7fa9\u5247","birthplace":"\u6771\u4eac\u90fd","image":"http:\/\/www.shogi.or.jp\/images\/player\/pro\/106.jpg","lat":35.6465246,"lng":139.65374949999998,"sex":"man"},{"no":"107","name":"\u5b89\u6075\u7167\u525b","birthplace":"\u6771\u4eac\u90fd\u4e16\u7530\u8c37\u533a","image":"http:\/\/www.shogi.or.jp\/images\/player\/pro\/107.jpg","lat":35.6465246,"lng":139.65374949999998,"sex":"man"},{"no":"108","name":"\u68ee\u5b89\u6b63\u5e78","birthplace":"\u5ca1\u5c71\u770c\u7b20\u5ca1\u5e02","image":"http:\/\/www.shogi.or.jp\/images\/player\/pro\/108.jpg","lat":34.5071213,"lng":133.50794309999998,"sex":"man"},{"no":"109","name":"\u7530\u4e38\u6607","birthplace":"\u9577\u91ce\u770c\u5317\u4f50\u4e45\u90e1","image":"http:\/\/www.shogi.or.jp\/images\/player\/pro\/109.jpg","lat":"36.34828980","lng":"138.59695460","sex":"man"},{"no":"111","name":"\u771f\u90e8\u4e00\u7537","birthplace":"\u6771\u4eac\u90fd\u8352\u5ddd\u533a","image":"http:\/\/www.shogi.or.jp\/images\/player\/pro\/111.jpg","lat":"35.73614430","lng":"139.78333640","sex":"man"},{"no":"112","name":"\u5c0f\u962a\u6607","birthplace":"\u5175\u5eab\u770c\u795e\u6238\u5e02","image":"http:\/\/www.shogi.or.jp\/images\/player\/pro\/112.jpg","lat":34.695040299999995,"lng":135.1982468,"sex":"man"},{"no":"113","name":"\u6de1\u8def\u4ec1\u8302","birthplace":"\u5175\u5eab\u770c\u795e\u6238\u5e02","image":"http:\/\/www.shogi.or.jp\/images\/player\/pro\/113.jpg","lat":34.695040299999995,"lng":135.1982468,"sex":"man"},{"no":"114","name":"\u9752\u91ce\u7167\u5e02","birthplace":"\u9759\u5ca1\u770c\u713c\u6d25\u5e02","image":"http:\/\/www.shogi.or.jp\/images\/player\/pro\/114.jpg","lat":"34.86692250","lng":"138.32318860","sex":"man"},{"no":"115","name":"\u690e\u6a4b\u91d1\u53f8","birthplace":"\u6771\u4eac\u90fd\u8db3\u7acb\u533a","image":"http:\/\/www.shogi.or.jp\/images\/player\/pro\/115.jpg","lat":"35.77563350","lng":"139.80450090","sex":"man"},{"no":"116","name":"\u524d\u7530\u7950\u53f8","birthplace":"\u718a\u672c\u770c\u718a\u672c\u5e02","image":"http:\/\/www.shogi.or.jp\/images\/player\/pro\/116.jpg","lat":"32.80322480","lng":"130.70819110","sex":"man"},{"no":"117","name":"\u98ef\u91ce\u5065\u4e8c","birthplace":"\u6771\u4eac\u90fd\u845b\u98fe\u533a","image":"http:\/\/www.shogi.or.jp\/images\/player\/pro\/117.jpg","lat":35.7434436,"lng":139.8477207,"sex":"man"},{"no":"118","name":"\u4f0a\u85e4\u679c","birthplace":"\u4eac\u90fd\u5e9c\u4eac\u90fd\u5e02","image":"http:\/\/www.shogi.or.jp\/images\/player\/pro\/118.jpg","lat":"35.01011650","lng":"135.75146390","sex":"man"},{"no":"119","name":"\u83ca\u5730\u5e38\u592b","birthplace":"\u9759\u5ca1\u770c\u71b1\u6d77\u5e02","image":"http:\/\/www.shogi.or.jp\/images\/player\/pro\/119.jpg","lat":"35.09599820","lng":"139.07153160","sex":"man"},{"no":"120","name":"\u6850\u8c37\u5e83\u4eba","birthplace":"\u5e83\u5cf6\u770c\u7af9\u539f\u5e02","image":"http:\/\/www.shogi.or.jp\/images\/player\/pro\/120.jpg","lat":"34.34179380","lng":"132.90708860","sex":"man"},{"no":"121","name":"\u6cbc\u6625\u96c4","birthplace":"\u6771\u4eac\u90fd\u6749\u4e26\u533a","image":"http:\/\/www.shogi.or.jp\/images\/player\/pro\/121.jpg","lat":"35.69957360","lng":"139.63638520","sex":"man"},{"no":"122","name":"\u6709\u91ce\u82b3\u4eba","birthplace":"\u6771\u4eac\u90fd\u5927\u7530\u533a","image":"http:\/\/www.shogi.or.jp\/images\/player\/pro\/122.jpg","lat":"35.56140010","lng":"139.71604740","sex":"man"},{"no":"123","name":"\u5c0f\u6797\u5065\u4e8c","birthplace":"\u9999\u5ddd\u770c\u9ad8\u677e\u5e02","image":"http:\/\/www.shogi.or.jp\/images\/player\/pro\/123.jpg","lat":"34.34273460","lng":"134.04681240","sex":"man"},{"no":"124","name":"\u571f\u4f50\u6d69\u53f8","birthplace":"\u65b0\u6f5f\u770c\u5357\u9b5a\u6cbc\u5e02","image":"http:\/\/www.shogi.or.jp\/images\/player\/pro\/124.jpg","lat":"37.06554090","lng":"138.87606720","sex":"man"},{"no":"125","name":"\u9152\u4e95\u9806\u5409","birthplace":"\u5175\u5eab\u770c\u660e\u77f3\u5e02","image":"http:\/\/www.shogi.or.jp\/images\/player\/pro\/125.jpg","lat":"34.64305700","lng":"134.99756190","sex":"man"},{"no":"127","name":"\u7530\u4e2d\u5bc5\u5f66","birthplace":"\u5927\u962a\u5e9c\u8c4a\u4e2d\u5e02","image":"http:\/\/www.shogi.or.jp\/images\/player\/pro\/127.jpg","lat":"34.78127910","lng":"135.46991910","sex":"man"},{"no":"128","name":"\u6771\u548c\u7537","birthplace":"\u9577\u5d0e\u770c\u4f50\u4e16\u4fdd\u5e02","image":"http:\/\/www.shogi.or.jp\/images\/player\/pro\/128.jpg","lat":"33.17991500","lng":"129.71510990","sex":"man"},{"no":"129","name":"\u4e2d\u7530\u7ae0\u9053","birthplace":"\u5bcc\u5c71\u770c\u516b\u5c3e\u753a","image":"http:\/\/www.shogi.or.jp\/images\/player\/pro\/129.jpg","lat":"36.55505132","lng":"137.14010457","sex":"man"},{"no":"130","name":"\u5927\u5cf6\u6620\u4e8c","birthplace":"\u9759\u5ca1\u770c\u6cbc\u6d25\u5e02","image":"http:\/\/www.shogi.or.jp\/images\/player\/pro\/130.jpg","lat":35.0955367,"lng":138.86399219999998,"sex":"man"},{"no":"131","name":"\u8c37\u5ddd\u6d69\u53f8","birthplace":"\u5175\u5eab\u770c\u795e\u6238\u5e02","image":"http:\/\/www.shogi.or.jp\/images\/player\/pro\/131.jpg","lat":34.695040299999995,"lng":135.1982468,"sex":"man"},{"no":"132","name":"\u677e\u6d66\u9686\u4e00","birthplace":"\u6771\u4eac\u90fd\u53f0\u6771\u533a","image":"http:\/\/www.shogi.or.jp\/images\/player\/pro\/132.jpg","lat":35.7125566,"lng":139.7804979,"sex":"man"},{"no":"133","name":"\u9752\u6728\u6e05","birthplace":"\u798f\u5ca1\u770c\u5317\u4e5d\u5dde\u5e02","image":"http:\/\/www.shogi.or.jp\/images\/player\/pro\/133.jpg","lat":"33.88087590","lng":"130.87342420","sex":"man"},{"no":"134","name":"\u5c0f\u91ce\u4fee\u4e00","birthplace":"\u6771\u4eac\u90fd","image":"http:\/\/www.shogi.or.jp\/images\/player\/pro\/134.jpg","lat":35.6465246,"lng":139.65374949999998,"sex":"man"},{"no":"135","name":"\u798f\u5d0e\u6587\u543e","birthplace":"\u5927\u962a\u5e9c\u5b88\u53e3\u5e02","image":"http:\/\/www.shogi.or.jp\/images\/player\/pro\/135.jpg","lat":"34.73578640","lng":"135.56175070","sex":"man"},{"no":"136","name":"\u9234\u6728\u8f1d\u5f66","birthplace":"\u9759\u5ca1\u770c\u888b\u4e95\u5e02","image":"http:\/\/www.shogi.or.jp\/images\/player\/pro\/136.jpg","lat":"34.75017350","lng":"137.92467910","sex":"man"},{"no":"137","name":"\u6b66\u8005\u91ce\u52dd\u5df3","birthplace":"\u7fa4\u99ac\u770c\u9928\u6797\u5e02","image":"http:\/\/www.shogi.or.jp\/images\/player\/pro\/137.jpg","lat":"36.24484830","lng":"139.54196770","sex":"man"},{"no":"138","name":"\u8107\u8b19\u4e8c","birthplace":"\u5927\u962a\u5e9c\u5927\u962a\u5e02","image":"http:\/\/www.shogi.or.jp\/images\/player\/pro\/138.jpg","lat":34.681025,"lng":135.5102871,"sex":"man"},{"no":"140","name":"\u702c\u6238\u535a\u6674","birthplace":"\u6771\u4eac\u90fd\u65b0\u5bbf\u533a","image":"http:\/\/www.shogi.or.jp\/images\/player\/pro\/140.jpg","lat":35.6938372,"lng":139.7039102,"sex":"man"},{"no":"141","name":"\u5150\u7389\u5b5d\u4e00","birthplace":"\u798f\u5ca1\u770c\u5317\u4e5d\u5dde\u5e02","image":"http:\/\/www.shogi.or.jp\/images\/player\/pro\/141.jpg","lat":33.8808259,"lng":130.87392419999998,"sex":"man"},{"no":"142","name":"\u9ad8\u6a4b\u9053\u96c4","birthplace":"\u6771\u4eac\u90fd","image":"http:\/\/www.shogi.or.jp\/images\/player\/pro\/142.jpg","lat":35.6465246,"lng":139.65374949999998,"sex":"man"},{"no":"143","name":"\u4e2d\u6751\u4fee","birthplace":"\u6771\u4eac\u90fd\u753a\u7530\u5e02","image":"http:\/\/www.shogi.or.jp\/images\/player\/pro\/143.jpg","lat":"35.54663040","lng":"139.43861820","sex":"man"},{"no":"144","name":"\u6cc9\u6b63\u6a39","birthplace":"\u6771\u4eac\u90fd\u7df4\u99ac\u533a","image":"http:\/\/www.shogi.or.jp\/images\/player\/pro\/144.jpg","lat":"35.73562260","lng":"139.65166010","sex":"man"},{"no":"145","name":"\u4f9d\u7530\u6709\u53f8","birthplace":"\u6771\u4eac\u90fd\u677f\u6a4b\u533a","image":"http:\/\/www.shogi.or.jp\/images\/player\/pro\/145.jpg","lat":"35.75116420","lng":"139.70924620","sex":"man"},{"no":"146","name":"\u5cf6\u6717","birthplace":"\u6771\u4eac\u90fd\u4e16\u7530\u8c37\u533a","image":"http:\/\/www.shogi.or.jp\/images\/player\/pro\/146.jpg","lat":35.6465246,"lng":139.65374949999998,"sex":"man"},{"no":"147","name":"\u5357\u82b3\u4e00","birthplace":"\u5927\u962a\u5e9c\u5cb8\u548c\u7530\u5e02","image":"http:\/\/www.shogi.or.jp\/images\/player\/pro\/147.jpg","lat":"34.46063370","lng":"135.37082880","sex":"man"},{"no":"148","name":"\u585a\u7530\u6cf0\u660e","birthplace":"\u6771\u4eac\u90fd","image":"http:\/\/www.shogi.or.jp\/images\/player\/pro\/148.jpg","lat":35.6465246,"lng":139.65374949999998,"sex":"man"},{"no":"149","name":"\u795e\u8c37\u5e83\u5fd7","birthplace":"\u9759\u5ca1\u770c\u6d5c\u677e\u5e02","image":"http:\/\/www.shogi.or.jp\/images\/player\/pro\/149.jpg","lat":34.7107369,"lng":137.7266037,"sex":"man"},{"no":"150","name":"\u690d\u5c71\u60a6\u884c","birthplace":"\u4e09\u91cd\u770c\u4f0a\u52e2\u5e02","image":"http:\/\/www.shogi.or.jp\/images\/player\/pro\/150.jpg","lat":34.4874667,"lng":136.70983619999998,"sex":"man"},{"no":"151","name":"\u897f\u5ddd\u6176\u4e8c","birthplace":"\u6771\u4eac\u90fd\u54c1\u5ddd\u533a","image":"http:\/\/www.shogi.or.jp\/images\/player\/pro\/151.jpg","lat":"35.60890570","lng":"139.73030810","sex":"man"},{"no":"152","name":"\u6b66\u5e02\u4e09\u90ce","birthplace":"\u5fb3\u5cf6\u770c\u5fb3\u5cf6\u5e02","image":"http:\/\/www.shogi.or.jp\/images\/player\/pro\/152.jpg","lat":34.070225,"lng":134.5553625,"sex":"man"},{"no":"153","name":"\u5ba4\u5ca1\u514b\u5f66","birthplace":"\u6771\u4eac\u90fd\u8352\u5ddd\u533a","image":"http:\/\/www.shogi.or.jp\/images\/player\/pro\/153.jpg","lat":35.7360943,"lng":139.78383639999998,"sex":"man"},{"no":"154","name":"\u5800\u53e3\u5f18\u6cbb","birthplace":"\u6771\u4eac\u90fd\u8abf\u5e03\u5e02","image":"http:\/\/www.shogi.or.jp\/images\/player\/pro\/154.jpg","lat":"35.65071620","lng":"139.54099260","sex":"man"},{"no":"155","name":"\u5927\u91ce\u516b\u4e00\u96c4","birthplace":"\u6771\u4eac\u90fd\u8db3\u7acb\u533a","image":"http:\/\/www.shogi.or.jp\/images\/player\/pro\/155.jpg","lat":35.775583499999996,"lng":139.80500089999998,"sex":"man"},{"no":"157","name":"\u4e95\u4e0a\u6176\u592a","birthplace":"\u5175\u5eab\u770c\u82a6\u5c4b\u5e02","image":"http:\/\/www.shogi.or.jp\/images\/player\/pro\/157.jpg","lat":"34.72695230","lng":"135.30416180","sex":"man"},{"no":"158","name":"\u6709\u68ee\u6d69\u4e09","birthplace":"\u5ca1\u5c71\u770c\u5ca1\u5c71\u5e02","image":"http:\/\/www.shogi.or.jp\/images\/player\/pro\/158.jpg","lat":34.6550843,"lng":133.9200909,"sex":"man"},{"no":"159","name":"\u98ef\u7530\u5f18\u4e4b","birthplace":"\u5c71\u5f62\u770c\u897f\u6751\u5c71\u90e1\u897f\u5ddd\u753a","image":"http:\/\/www.shogi.or.jp\/images\/player\/pro\/159.jpg","lat":"38.42674870","lng":"140.14691390","sex":"man"},{"no":"160","name":"\u795e\u5409\u5b8f\u5145","birthplace":"\u5175\u5eab\u770c\u52a0\u53e4\u5ddd\u5e02","image":"http:\/\/www.shogi.or.jp\/images\/player\/pro\/160.jpg","lat":"34.75694990","lng":"134.84117730","sex":"man"},{"no":"161","name":"\u68ee\u4e0b\u5353","birthplace":"\u798f\u5ca1\u770c\u5317\u4e5d\u5dde\u5e02","image":"http:\/\/www.shogi.or.jp\/images\/player\/pro\/161.jpg","lat":33.8808259,"lng":130.87392419999998,"sex":"man"},{"no":"162","name":"\u6d66\u91ce\u771f\u5f66","birthplace":"\u5927\u962a\u5e9c","image":"http:\/\/www.shogi.or.jp\/images\/player\/pro\/162.jpg","lat":34.681025,"lng":135.5102871,"sex":"man"},{"no":"163","name":"\u5c0f\u91ce\u6566\u751f","birthplace":"\u5317\u6d77\u9053\u65ed\u5ddd\u5e02","image":"http:\/\/www.shogi.or.jp\/images\/player\/substitute.png","lat":"43.77077640","lng":"142.36474360","sex":"man"},{"no":"164","name":"\u65e5\u6d66\u5e02\u90ce","birthplace":"\u5317\u6d77\u9053\u65b0\u3072\u3060\u304b\u753a","image":"http:\/\/www.shogi.or.jp\/images\/player\/pro\/164.jpg","lat":"42.34128400","lng":"142.36858190","sex":"man"},{"no":"165","name":"\u9054\u6b63\u5149","birthplace":"\u5343\u8449\u770c","image":"http:\/\/www.shogi.or.jp\/images\/player\/pro\/165.jpg","lat":"35.69448040","lng":"139.98245370","sex":"man"},{"no":"166","name":"\u4f0a\u85e4\u535a\u6587","birthplace":"\u5948\u826f\u770c\u5927\u548c\u9ad8\u7530\u5e02","image":"http:\/\/www.shogi.or.jp\/images\/player\/pro\/166.jpg","lat":"34.51504860","lng":"135.73645020","sex":"man"},{"no":"167","name":"\u5c0f\u6797\u5b8f","birthplace":"\u4e09\u91cd\u770c\u5ea6\u4f1a\u90e1\u7389\u57ce\u753a","image":"http:\/\/www.shogi.or.jp\/images\/player\/pro\/167.jpg","lat":"34.49021390","lng":"136.63083480","sex":"man"},{"no":"168","name":"\u5bcc\u5ca1\u82f1\u4f5c","birthplace":"\u795e\u5948\u5ddd\u770c\u6a2a\u6d5c\u5e02","image":"http:\/\/www.shogi.or.jp\/images\/player\/pro\/168.jpg","lat":35.4446185,"lng":139.6426529,"sex":"man"},{"no":"169","name":"\u95a2\u6d69","birthplace":"\u6771\u4eac\u90fd\u897f\u6771\u4eac\u5e02","image":"http:\/\/www.shogi.or.jp\/images\/player\/pro\/169.jpg","lat":"35.72551540","lng":"139.53814500","sex":"man"},{"no":"170","name":"\u672c\u9593\u535a","birthplace":"\u5927\u962a\u5e9c","image":"http:\/\/www.shogi.or.jp\/images\/player\/pro\/170.jpg","lat":34.681025,"lng":135.5102871,"sex":"man"},{"no":"171","name":"\u963f\u90e8\u9686","birthplace":"\u5927\u962a\u5e9c","image":"http:\/\/www.shogi.or.jp\/images\/player\/pro\/171.jpg","lat":34.681025,"lng":135.5102871,"sex":"man"},{"no":"172","name":"\u6240\u53f8\u548c\u6674","birthplace":"\u6771\u4eac\u90fd\u6c5f\u6771\u533a","image":"http:\/\/www.shogi.or.jp\/images\/player\/pro\/172.jpg","lat":35.6730284,"lng":139.81746809999999,"sex":"man"},{"no":"173","name":"\u4e2d\u7530\u5b8f\u6a39","birthplace":"\u6771\u4eac\u90fd\u6b66\u8535\u91ce\u5e02","image":"http:\/\/www.shogi.or.jp\/images\/player\/pro\/173.jpg","lat":"35.71778360","lng":"139.56625970","sex":"man"},{"no":"174","name":"\u5b89\u897f\u52dd\u4e00","birthplace":"\u6771\u4eac\u90fd\u677f\u6a4b\u533a","image":"http:\/\/www.shogi.or.jp\/images\/player\/pro\/174.jpg","lat":35.751114199999996,"lng":139.70974619999998,"sex":"man"},{"no":"175","name":"\u7fbd\u751f\u5584\u6cbb","birthplace":"\u57fc\u7389\u770c\u6240\u6ca2\u5e02","image":"http:\/\/www.shogi.or.jp\/images\/player\/pro\/175.jpg","lat":"35.79947700","lng":"139.46872080","sex":"man"},{"no":"176","name":"\u4e2d\u7530\u529f","birthplace":"\u798f\u5ca1\u770c\u798f\u5ca1\u5e02\u4e2d\u592e\u533a","image":"http:\/\/www.shogi.or.jp\/images\/player\/pro\/176.jpg","lat":"33.58915450","lng":"130.39299360","sex":"man"},{"no":"177","name":"\u77f3\u5ddd\u967d\u751f","birthplace":"\u6771\u4eac\u90fd\u65b0\u5bbf\u533a","image":"http:\/\/www.shogi.or.jp\/images\/player\/pro\/177.jpg","lat":35.6938372,"lng":139.7039102,"sex":"man"},{"no":"178","name":"\u9577\u6cbc\u6d0b","birthplace":"\u5c90\u961c\u770c","image":"http:\/\/www.shogi.or.jp\/images\/player\/pro\/178.jpg","lat":"35.42323670","lng":"136.76094510","sex":"man"},{"no":"179","name":"\u795e\u5d0e\u5065\u4e8c","birthplace":"\u548c\u6b4c\u5c71\u770c\u548c\u6b4c\u5c71\u5e02","image":"http:\/\/www.shogi.or.jp\/images\/player\/pro\/179.jpg","lat":"34.23033840","lng":"135.17072990","sex":"man"},{"no":"180","name":"\u6751\u5c71\u8056","birthplace":"\u5e83\u5cf6\u770c\u5b89\u82b8\u90e1","image":"http:\/\/www.shogi.or.jp\/images\/player\/pro\/180.jpg","lat":"34.39247240","lng":"132.50456560","sex":"man"},{"no":"181","name":"\u6adb\u7530\u967d\u4e00","birthplace":"\u6771\u4eac\u90fd","image":"http:\/\/www.shogi.or.jp\/images\/player\/pro\/181.jpg","lat":35.6465246,"lng":139.65374949999998,"sex":"man"},{"no":"182","name":"\u4f50\u85e4\u5eb7\u5149","birthplace":"\u4eac\u90fd\u5e9c\u516b\u5e61\u5e02","image":"http:\/\/www.shogi.or.jp\/images\/player\/pro\/182.jpg","lat":"34.87555750","lng":"135.70762360","sex":"man"},{"no":"183","name":"\u68ee\u5185\u4fca\u4e4b","birthplace":"\u795e\u5948\u5ddd\u770c\u6a2a\u6d5c\u5e02","image":"http:\/\/www.shogi.or.jp\/images\/player\/pro\/183.jpg","lat":35.4446185,"lng":139.6426529,"sex":"man"},{"no":"184","name":"\u4e2d\u5ddd\u5927\u8f14","birthplace":"\u5bae\u57ce\u770c\u4ed9\u53f0\u5e02","image":"http:\/\/www.shogi.or.jp\/images\/player\/pro\/184.jpg","lat":38.2690255,"lng":140.87067169999997,"sex":"man"},{"no":"185","name":"\u5148\u5d0e\u5b66","birthplace":"\u9752\u68ee\u770c","image":"http:\/\/www.shogi.or.jp\/images\/player\/pro\/185.jpg","lat":"40.82253780","lng":"140.74727310","sex":"man"},{"no":"186","name":"\u91ce\u7530\u656c\u4e09","birthplace":"\u5175\u5eab\u770c\u795e\u6238\u5e02","image":"http:\/\/www.shogi.or.jp\/images\/player\/pro\/186.jpg","lat":34.695040299999995,"lng":135.1982468,"sex":"man"},{"no":"187","name":"\u6728\u4e0b\u6d69\u4e00","birthplace":"\u9577\u91ce\u770c","image":"http:\/\/www.shogi.or.jp\/images\/player\/pro\/187.jpg","lat":36.6485358,"lng":138.19527309999998,"sex":"man"},{"no":"188","name":"\u5c0f\u5009\u4e45\u53f2","birthplace":"\u6771\u4eac\u90fd","image":"http:\/\/www.shogi.or.jp\/images\/player\/pro\/188.jpg","lat":35.6465246,"lng":139.65374949999998,"sex":"man"},{"no":"189","name":"\u5c4b\u6577\u4f38\u4e4b","birthplace":"\u5317\u6d77\u9053\u672d\u5e4c\u5e02","image":"http:\/\/www.shogi.or.jp\/images\/player\/pro\/189.jpg","lat":43.0552316,"lng":141.3415776,"sex":"man"},{"no":"190","name":"\u85e4\u539f\u76f4\u54c9","birthplace":"\u5175\u5eab\u770c\u795e\u6238\u5e02","image":"http:\/\/www.shogi.or.jp\/images\/player\/pro\/190.jpg","lat":34.695040299999995,"lng":135.1982468,"sex":"man"},{"no":"191","name":"\u9ad8\u7530\u5c1a\u5e73","birthplace":"\u6771\u4eac\u90fd","image":"http:\/\/www.shogi.or.jp\/images\/player\/pro\/191.jpg","lat":35.6465246,"lng":139.65374949999998,"sex":"man"},{"no":"192","name":"\u7560\u5c71\u93ae","birthplace":"\u795e\u5948\u5ddd\u770c","image":"http:\/\/www.shogi.or.jp\/images\/player\/pro\/192.jpg","lat":35.4446185,"lng":139.6426529,"sex":"man"},{"no":"193","name":"\u7560\u5c71\u6210\u5e78","birthplace":"\u795e\u5948\u5ddd\u770c","image":"http:\/\/www.shogi.or.jp\/images\/player\/pro\/193.jpg","lat":35.4446185,"lng":139.6426529,"sex":"man"},{"no":"194","name":"\u4e38\u5c71\u5fe0\u4e45","birthplace":"\u5343\u8449\u770c\u6728\u66f4\u6d25\u5e02","image":"http:\/\/www.shogi.or.jp\/images\/player\/pro\/194.jpg","lat":"35.38122570","lng":"139.92486260","sex":"man"},{"no":"195","name":"\u90f7\u7530\u771f\u9686","birthplace":"\u6771\u4eac\u90fd","image":"http:\/\/www.shogi.or.jp\/images\/player\/pro\/195.jpg","lat":35.6465246,"lng":139.65374949999998,"sex":"man"},{"no":"196","name":"\u4f50\u85e4\u79c0\u53f8","birthplace":"\u5bae\u57ce\u770c\u5927\u5d0e\u5e02","image":"http:\/\/www.shogi.or.jp\/images\/player\/pro\/196.jpg","lat":"38.57712310","lng":"140.95547150","sex":"man"},{"no":"197","name":"\u6749\u672c\u660c\u9686","birthplace":"\u611b\u77e5\u770c\u540d\u53e4\u5c4b\u5e02","image":"http:\/\/www.shogi.or.jp\/images\/player\/pro\/197.jpg","lat":35.1685504,"lng":136.91068389999998,"sex":"man"},{"no":"198","name":"\u85e4\u4e95\u731b","birthplace":"\u7fa4\u99ac\u770c\u6cbc\u7530\u5e02","image":"http:\/\/www.shogi.or.jp\/images\/player\/pro\/198.jpg","lat":"36.64396520","lng":"139.04282220","sex":"man"},{"no":"199","name":"\u5e73\u85e4\u771e\u543e","birthplace":"\u5927\u962a\u5e9c\u8c4a\u4e2d\u5e02","image":"http:\/\/www.shogi.or.jp\/images\/player\/pro\/199.jpg","lat":34.7812291,"lng":135.4704191,"sex":"man"},{"no":"200","name":"\u8c4a\u5ddd\u5b5d\u5f18","birthplace":"\u6771\u4eac\u90fd\u6749\u4e26\u533a","image":"http:\/\/www.shogi.or.jp\/images\/player\/pro\/200.jpg","lat":35.6995236,"lng":139.6368852,"sex":"man"},{"no":"201","name":"\u6df1\u6d66\u5eb7\u5e02","birthplace":"\u9577\u5d0e\u770c","image":"http:\/\/www.shogi.or.jp\/images\/player\/pro\/201.jpg","lat":"32.75029080","lng":"129.87772490","sex":"man"},{"no":"202","name":"\u771f\u7530\u572d\u4e00","birthplace":"\u5343\u8449\u770c\u516b\u5343\u4ee3\u5e02","image":"http:\/\/www.shogi.or.jp\/images\/player\/pro\/202.jpg","lat":"35.72264850","lng":"140.09964720","sex":"man"},{"no":"203","name":"\u98ef\u585a\u7950\u7d00","birthplace":"\u6771\u4eac\u90fd","image":"http:\/\/www.shogi.or.jp\/images\/player\/pro\/203.jpg","lat":35.6465246,"lng":139.65374949999998,"sex":"man"},{"no":"204","name":"\u4e09\u6d66\u5f18\u884c","birthplace":"\u7fa4\u99ac\u770c","image":"http:\/\/www.shogi.or.jp\/images\/player\/pro\/204.jpg","lat":"36.32188440","lng":"139.00332600","sex":"man"},{"no":"205","name":"\u4f0a\u85e4\u80fd","birthplace":"\u6771\u4eac\u90fd\u6749\u4e26\u533a","image":"http:\/\/www.shogi.or.jp\/images\/player\/pro\/205.jpg","lat":35.6995236,"lng":139.6368852,"sex":"man"},{"no":"206","name":"\u5ddd\u4e0a\u731b","birthplace":"\u6771\u4eac\u90fd\u8db3\u7acb\u533a","image":"http:\/\/www.shogi.or.jp\/images\/player\/pro\/206.jpg","lat":35.775583499999996,"lng":139.80500089999998,"sex":"man"},{"no":"207","name":"\u4e45\u4fdd\u5229\u660e","birthplace":"\u5175\u5eab\u770c\u52a0\u53e4\u5ddd\u5e02","image":"http:\/\/www.shogi.or.jp\/images\/player\/pro\/207.jpg","lat":34.7568999,"lng":134.8416773,"sex":"man"},{"no":"208","name":"\u884c\u65b9\u5c1a\u53f2","birthplace":"\u9752\u68ee\u770c\u5f18\u524d\u5e02","image":"http:\/\/www.shogi.or.jp\/images\/player\/pro\/208.jpg","lat":"40.60312380","lng":"140.46392170","sex":"man"},{"no":"209","name":"\u5ca1\u5d0e\u6d0b","birthplace":"\u5343\u8449\u770c","image":"http:\/\/www.shogi.or.jp\/images\/player\/pro\/209.jpg","lat":35.6944304,"lng":139.9829537,"sex":"man"},{"no":"210","name":"\u7aaa\u7530\u7fa9\u884c","birthplace":"\u6771\u4eac\u90fd\u8db3\u7acb\u533a","image":"http:\/\/www.shogi.or.jp\/images\/player\/pro\/210.jpg","lat":35.775583499999996,"lng":139.80500089999998,"sex":"man"},{"no":"211","name":"\u5317\u6d5c\u5065\u4ecb","birthplace":"\u795e\u5948\u5ddd\u770c\u6d77\u8001\u540d\u5e02","image":"http:\/\/www.shogi.or.jp\/images\/player\/pro\/211.jpg","lat":"35.44643130","lng":"139.39060630","sex":"man"},{"no":"212","name":"\u77e2\u5009\u898f\u5e83","birthplace":"\u5927\u962a\u5e9c","image":"http:\/\/www.shogi.or.jp\/images\/player\/pro\/212.jpg","lat":34.681025,"lng":135.5102871,"sex":"man"},{"no":"213","name":"\u9234\u6728\u5927\u4ecb","birthplace":"\u6771\u4eac\u90fd","image":"http:\/\/www.shogi.or.jp\/images\/player\/pro\/213.jpg","lat":35.6465246,"lng":139.65374949999998,"sex":"man"},{"no":"214","name":"\u5317\u5cf6\u5fe0\u96c4","birthplace":"\u6771\u4eac\u90fd","image":"http:\/\/www.shogi.or.jp\/images\/player\/pro\/214.jpg","lat":35.6465246,"lng":139.65374949999998,"sex":"man"},{"no":"215","name":"\u52dd\u53c8\u6e05\u548c","birthplace":"\u795e\u5948\u5ddd\u770c\u5ea7\u9593\u5e02","image":"http:\/\/www.shogi.or.jp\/images\/player\/pro\/215.jpg","lat":"35.48862150","lng":"139.40765650","sex":"man"},{"no":"216","name":"\u677e\u672c\u4f73\u4ecb","birthplace":"\u57fc\u7389\u770c","image":"http:\/\/www.shogi.or.jp\/images\/player\/pro\/216.jpg","lat":"35.92510330","lng":"139.48579260","sex":"man"},{"no":"217","name":"\u7530\u6751\u5eb7\u4ecb","birthplace":"\u5bcc\u5c71\u770c\u9b5a\u6d25\u5e02","image":"http:\/\/www.shogi.or.jp\/images\/player\/pro\/217.jpg","lat":"36.82736720","lng":"137.40921730","sex":"man"},{"no":"218","name":"\u5800\u53e3\u4e00\u53f2\u5ea7","birthplace":"\u6771\u4eac\u90fd","image":"http:\/\/www.shogi.or.jp\/images\/player\/pro\/218.jpg","lat":35.6465246,"lng":139.65374949999998,"sex":"man"},{"no":"219","name":"\u4e2d\u5ea7\u771f","birthplace":"\u5317\u6d77\u9053\u7a1a\u5185\u5e02","image":"http:\/\/www.shogi.or.jp\/images\/player\/pro\/219.jpg","lat":"45.41568040","lng":"141.67309560","sex":"man"},{"no":"220","name":"\u8fd1\u85e4\u6b63\u548c","birthplace":"\u65b0\u6f5f\u770c","image":"http:\/\/www.shogi.or.jp\/images\/player\/pro\/220.jpg","lat":"37.44626720","lng":"138.85127950","sex":"man"},{"no":"221","name":"\u91ce\u6708\u6d69\u8cb4","birthplace":"\u5317\u6d77\u9053","image":"http:\/\/www.shogi.or.jp\/images\/player\/pro\/221.jpg","lat":43.0552316,"lng":141.3415776,"sex":"man"},{"no":"222","name":"\u6728\u6751\u4e00\u57fa","birthplace":"\u5343\u8449\u770c\u56db\u8857\u9053\u5e02","image":"http:\/\/www.shogi.or.jp\/images\/player\/pro\/222.jpg","lat":"35.66973190","lng":"140.16793260","sex":"man"},{"no":"223","name":"\u5c0f\u6797\u88d5\u58eb","birthplace":"\u4eac\u90fd\u5e9c","image":"http:\/\/www.shogi.or.jp\/images\/player\/pro\/223.jpg","lat":35.0100665,"lng":135.7519639,"sex":"man"},{"no":"224","name":"\u4f50\u85e4\u7d33\u54c9","birthplace":"\u795e\u5948\u5ddd\u770c\u76f8\u6a21\u539f\u5e02","image":"http:\/\/www.shogi.or.jp\/images\/player\/pro\/224.jpg","lat":"35.57137360","lng":"139.37323430","sex":"man"},{"no":"225","name":"\u5897\u7530\u88d5\u53f8","birthplace":"\u5948\u826f\u770c\u5fa1\u6240\u5e02","image":"http:\/\/www.shogi.or.jp\/images\/player\/pro\/225.jpg","lat":"34.46333250","lng":"135.74023990","sex":"man"},{"no":"226","name":"\u9ad8\u91ce\u79c0\u884c","birthplace":"\u795e\u5948\u5ddd\u770c\u6a2a\u6d5c\u5e02","image":"http:\/\/www.shogi.or.jp\/images\/player\/pro\/226.jpg","lat":35.4446185,"lng":139.6426529,"sex":"man"},{"no":"227","name":"\u5c71\u5d0e\u9686\u4e4b","birthplace":"\u5e83\u5cf6\u770c\u5e83\u5cf6\u5e02","image":"http:\/\/www.shogi.or.jp\/images\/player\/pro\/227.jpg","lat":"34.38624680","lng":"132.45501980","sex":"man"},{"no":"228","name":"\u4f0a\u5948\u7950\u4ecb","birthplace":"\u795e\u5948\u5ddd\u770c\u9017\u5b50\u5e02","image":"http:\/\/www.shogi.or.jp\/images\/player\/pro\/228.jpg","lat":"35.29561090","lng":"139.58040580","sex":"man"},{"no":"229","name":"\u5c71\u672c\u771f\u4e5f","birthplace":"\u5927\u962a\u5e9c\u6771\u5927\u962a\u5e02","image":"http:\/\/www.shogi.or.jp\/images\/player\/pro\/229.jpg","lat":"34.67931010","lng":"135.60092060","sex":"man"},{"no":"230","name":"\u4e2d\u5c3e\u654f\u4e4b","birthplace":"\u9759\u5ca1\u770c\u5bcc\u58eb\u5e02","image":"http:\/\/www.shogi.or.jp\/images\/player\/pro\/230.jpg","lat":"35.16139810","lng":"138.67630540","sex":"man"},{"no":"231","name":"\u677e\u5c3e\u6b69","birthplace":"\u611b\u77e5\u770c\u65e5\u9032\u5e02","image":"http:\/\/www.shogi.or.jp\/images\/player\/pro\/231.jpg","lat":"35.13202590","lng":"137.03956980","sex":"man"},{"no":"232","name":"\u91d1\u6ca2\u5b5d\u53f2","birthplace":"\u5317\u6d77\u9053\u672d\u5e4c\u5e02","image":"http:\/\/www.shogi.or.jp\/images\/player\/pro\/232.jpg","lat":43.0552316,"lng":141.3415776,"sex":"man"},{"no":"233","name":"\u963f\u4e45\u6d25\u4e3b\u7a0e","birthplace":"\u5175\u5eab\u770c\u897f\u5bae\u5e02","image":"http:\/\/www.shogi.or.jp\/images\/player\/pro\/233.jpg","lat":34.7378267,"lng":135.3420224,"sex":"man"},{"no":"234","name":"\u5b89\u7528\u5bfa\u5b5d\u529f","birthplace":"\u4eac\u90fd\u5e9c\u5b87\u6cbb\u5e02","image":"http:\/\/www.shogi.or.jp\/images\/player\/pro\/234.jpg","lat":"34.88450180","lng":"135.79983460","sex":"man"},{"no":"235","name":"\u6e21\u8fba\u660e","birthplace":"\u6771\u4eac\u90fd\u845b\u98fe\u533a","image":"http:\/\/www.shogi.or.jp\/images\/player\/pro\/235.jpg","lat":35.7434436,"lng":139.8477207,"sex":"man"},{"no":"236","name":"\u98ef\u5cf6\u6804\u6cbb","birthplace":"\u6771\u4eac\u90fd\u6c5f\u6771\u533a","image":"http:\/\/www.shogi.or.jp\/images\/player\/pro\/236.jpg","lat":35.6730284,"lng":139.81746809999999,"sex":"man"},{"no":"237","name":"\u5343\u8449\u5e78\u751f","birthplace":"\u6771\u4eac\u90fd\u753a\u7530\u5e02","image":"http:\/\/www.shogi.or.jp\/images\/player\/pro\/237.jpg","lat":35.546580399999996,"lng":139.4391182,"sex":"man"},{"no":"238","name":"\u4e0a\u91ce\u88d5\u548c","birthplace":"\u795e\u5948\u5ddd\u770c\u539a\u6728\u5e02","image":"http:\/\/www.shogi.or.jp\/images\/player\/pro\/238.jpg","lat":"35.44287600","lng":"139.36246950","sex":"man"},{"no":"239","name":"\u6a4b\u672c\u5d07\u8f09","birthplace":"\u77f3\u5ddd\u770c\u5c0f\u677e\u5e02","image":"http:\/\/www.shogi.or.jp\/images\/player\/pro\/239.jpg","lat":"36.40855020","lng":"136.44556520","sex":"man"},{"no":"240","name":"\u4f50\u3005\u6728\u614e","birthplace":"\u6771\u4eac\u90fd\u4e2d\u91ce\u533a","image":"http:\/\/www.shogi.or.jp\/images\/player\/pro\/240.jpg","lat":"35.70739840","lng":"139.66383810","sex":"man"},{"no":"241","name":"\u5bae\u7530\u6566\u53f2","birthplace":"\u57fc\u7389\u770c\u5409\u5ddd\u5e02","image":"http:\/\/www.shogi.or.jp\/images\/player\/pro\/241.jpg","lat":"35.89579560","lng":"139.85551780","sex":"man"},{"no":"242","name":"\u6751\u7530\u667a\u5f18","birthplace":"\u5175\u5eab\u770c\u9ad8\u7802\u5e02","image":"http:\/\/www.shogi.or.jp\/images\/player\/pro\/242.jpg","lat":"34.76620430","lng":"134.79044080","sex":"man"},{"no":"243","name":"\u5927\u5e73\u6b66\u6d0b","birthplace":"\u6771\u4eac\u90fd\u5317\u533a","image":"http:\/\/www.shogi.or.jp\/images\/player\/pro\/243.jpg","lat":"35.75292570","lng":"139.73341070","sex":"man"},{"no":"244","name":"\u718a\u5742\u5b66","birthplace":"\u5bae\u57ce\u770c\u4ed9\u53f0\u5e02","image":"http:\/\/www.shogi.or.jp\/images\/player\/pro\/244.jpg","lat":38.2690255,"lng":140.87067169999997,"sex":"man"},{"no":"245","name":"\u85e4\u5009\u52c7\u6a39","birthplace":"\u6771\u4eac\u90fd\u65b0\u5bbf\u533a","image":"http:\/\/www.shogi.or.jp\/images\/player\/pro\/245.jpg","lat":35.6938372,"lng":139.7039102,"sex":"man"},{"no":"246","name":"\u6a2a\u5c71\u6cf0\u660e","birthplace":"\u6771\u4eac\u90fd\u591a\u6469\u5e02","image":"http:\/\/www.shogi.or.jp\/images\/player\/pro\/246.jpg","lat":"35.63703150","lng":"139.44628410","sex":"man"},{"no":"247","name":"\u5cf6\u672c\u4eae","birthplace":"\u5175\u5eab\u770c\u795e\u6238\u5e02","image":"http:\/\/www.shogi.or.jp\/images\/player\/pro\/247.jpg","lat":34.695040299999995,"lng":135.1982468,"sex":"man"},{"no":"248","name":"\u897f\u5c3e\u660e","birthplace":"\u795e\u5948\u5ddd\u770c\u6a2a\u6d5c\u5e02","image":"http:\/\/www.shogi.or.jp\/images\/player\/pro\/248.jpg","lat":35.4446185,"lng":139.6426529,"sex":"man"},{"no":"249","name":"\u6751\u5c71\u6148\u660e","birthplace":"\u6771\u4eac\u90fd\u65e5\u91ce\u5e02","image":"http:\/\/www.shogi.or.jp\/images\/player\/pro\/249.jpg","lat":"35.67144840","lng":"139.39486220","sex":"man"},{"no":"250","name":"\u4f50\u85e4\u548c\u4fca","birthplace":"\u5343\u8449\u770c\u677e\u6238\u5e02","image":"http:\/\/www.shogi.or.jp\/images\/player\/pro\/250.jpg","lat":35.7876009,"lng":139.9035932,"sex":"man"},{"no":"251","name":"\u7247\u4e0a\u5927\u8f14","birthplace":"\u5e83\u5cf6\u770c\u5e83\u5cf6\u5e02","image":"http:\/\/www.shogi.or.jp\/images\/player\/pro\/251.jpg","lat":34.3861968,"lng":132.4555198,"sex":"man"},{"no":"252","name":"\u4e2d\u6751\u4eae\u4ecb","birthplace":"\u57fc\u7389\u770c","image":"http:\/\/www.shogi.or.jp\/images\/player\/pro\/252.jpg","lat":35.9250533,"lng":139.48629259999998,"sex":"man"},{"no":"253","name":"\u6751\u4e2d\u79c0\u53f2","birthplace":"\u6771\u4eac\u90fd\u5317\u533a","image":"http:\/\/www.shogi.or.jp\/images\/player\/pro\/253.jpg","lat":35.7528757,"lng":139.7339107,"sex":"man"},{"no":"254","name":"\u962a\u53e3\u609f","birthplace":"\u5927\u962a\u5e9c\u9ad8\u77f3\u5e02","image":"http:\/\/www.shogi.or.jp\/images\/player\/pro\/254.jpg","lat":"34.52071950","lng":"135.44245500","sex":"man"},{"no":"255","name":"\u5e83\u702c\u7ae0\u4eba","birthplace":"\u5317\u6d77\u9053\u672d\u5e4c\u5e02","image":"http:\/\/www.shogi.or.jp\/images\/player\/pro\/255.jpg","lat":43.0552316,"lng":141.3415776,"sex":"man"},{"no":"256","name":"\u9577\u5ca1\u88d5\u4e5f","birthplace":"\u6771\u4eac\u90fd\u516b\u738b\u5b50\u5e02","image":"http:\/\/www.shogi.or.jp\/images\/player\/pro\/256.jpg","lat":"35.66634170","lng":"139.31580520","sex":"man"},{"no":"257","name":"\u9ad8\u5d0e\u4e00\u751f","birthplace":"\u5bae\u5d0e\u770c\u65e5\u5357\u5e02","image":"http:\/\/www.shogi.or.jp\/images\/player\/pro\/257.jpg","lat":"31.60139850","lng":"131.37833840","sex":"man"},{"no":"258","name":"\u9060\u5c71\u96c4\u4eae","birthplace":"\u6771\u4eac\u90fd\u7df4\u99ac\u533a","image":"http:\/\/www.shogi.or.jp\/images\/player\/pro\/258.jpg","lat":35.7355726,"lng":139.65216009999997,"sex":"man"},{"no":"259","name":"\u702c\u5ddd\u6676\u53f8","birthplace":"\u795e\u5948\u5ddd\u770c\u6a2a\u6d5c\u5e02","image":"http:\/\/www.shogi.or.jp\/images\/player\/pro\/259.jpg","lat":35.4446185,"lng":139.6426529,"sex":"man"},{"no":"260","name":"\u7cf8\u8c37\u54f2\u90ce","birthplace":"\u5e83\u5cf6\u770c\u5e83\u5cf6\u5e02","image":"http:\/\/www.shogi.or.jp\/images\/player\/pro\/260.jpg","lat":34.3861968,"lng":132.4555198,"sex":"man"},{"no":"261","name":"\u4e2d\u6751\u592a\u5730","birthplace":"\u6771\u4eac\u90fd\u5e9c\u4e2d\u5e02","image":"http:\/\/www.shogi.or.jp\/images\/player\/pro\/261.jpg","lat":"35.66918430","lng":"139.47761080","sex":"man"},{"no":"262","name":"\u6238\u8fba\u8aa0","birthplace":"\u795e\u5948\u5ddd\u770c\u6a2a\u6d5c\u5e02","image":"http:\/\/www.shogi.or.jp\/images\/player\/pro\/262.jpg","lat":35.4446185,"lng":139.6426529,"sex":"man"},{"no":"263","name":"\u4f50\u85e4\u5929\u5f66","birthplace":"\u798f\u5ca1\u770c\u798f\u5ca1\u5e02","image":"http:\/\/www.shogi.or.jp\/images\/player\/pro\/263.jpg","lat":33.5913101,"lng":130.4153782,"sex":"man"},{"no":"264","name":"\u8c4a\u5cf6\u5c06\u4e4b","birthplace":"\u611b\u77e5\u770c\u4e00\u5bae\u5e02","image":"http:\/\/www.shogi.or.jp\/images\/player\/pro\/264.jpg","lat":"35.30398690","lng":"136.80245980","sex":"man"},{"no":"265","name":"\u91d1\u4e95\u6052\u592a","birthplace":"\u57fc\u7389\u770c\u4e0a\u5c3e\u5e02","image":"http:\/\/www.shogi.or.jp\/images\/player\/pro\/265.jpg","lat":"35.97738470","lng":"139.59319130","sex":"man"},{"no":"266","name":"\u4f0a\u85e4\u771f\u543e","birthplace":"\u6771\u4eac\u90fd\u516b\u738b\u5b50\u5e02","image":"http:\/\/www.shogi.or.jp\/images\/player\/pro\/266.jpg","lat":35.666291699999995,"lng":139.3163052,"sex":"man"},{"no":"267","name":"\u6751\u7530\u9855\u5f18","birthplace":"\u5bcc\u5c71\u770c\u9b5a\u6d25\u5e02","image":"http:\/\/www.shogi.or.jp\/images\/player\/pro\/267.jpg","lat":36.827317199999996,"lng":137.40971729999998,"sex":"man"},{"no":"268","name":"\u53ca\u5ddd\u62d3\u99ac","birthplace":"\u57fc\u7389\u770c\u5317\u845b\u98fe\u90e1\u677e\u4f0f\u753a","image":"http:\/\/www.shogi.or.jp\/images\/player\/pro\/268.jpg","lat":"35.92570340","lng":"139.81528050","sex":"man"},{"no":"269","name":"\u7a32\u8449\u967d","birthplace":"\u5175\u5eab\u770c\u897f\u5bae\u5e02","image":"http:\/\/www.shogi.or.jp\/images\/player\/pro\/269.jpg","lat":34.7378267,"lng":135.3420224,"sex":"man"},{"no":"270","name":"\u7530\u4e2d\u60a0\u4e00","birthplace":"\u9577\u91ce\u770c\u9577\u91ce\u5e02","image":"http:\/\/www.shogi.or.jp\/images\/player\/pro\/270.jpg","lat":36.6485358,"lng":138.19527309999998,"sex":"man"},{"no":"271","name":"\u4f50\u85e4\u614e\u4e00","birthplace":"\u6771\u4eac\u90fd\u7df4\u99ac\u533a","image":"http:\/\/www.shogi.or.jp\/images\/player\/pro\/271.jpg","lat":35.7355726,"lng":139.65216009999997,"sex":"man"},{"no":"272","name":"\u897f\u5ddd\u548c\u5b8f","birthplace":"\u5175\u5eab\u770c\u795e\u6238\u5e02","image":"http:\/\/www.shogi.or.jp\/images\/player\/pro\/272.jpg","lat":34.695040299999995,"lng":135.1982468,"sex":"man"},{"no":"273","name":"\u6e21\u8fba\u6b63\u548c","birthplace":"\u57fc\u7389\u770c\u3075\u3058\u307f\u91ce\u5e02","image":"http:\/\/www.shogi.or.jp\/images\/player\/pro\/273.jpg","lat":"35.87955710","lng":"139.51976890","sex":"man"},{"no":"274","name":"\u6fa4\u7530\u771f\u543e","birthplace":"\u4e09\u91cd\u770c\u9234\u9e7f\u5e02","image":"http:\/\/www.shogi.or.jp\/images\/player\/pro\/274.jpg","lat":34.8820428,"lng":136.58438389999998,"sex":"man"},{"no":"275","name":"\u5927\u77f3\u76f4\u55e3","birthplace":"\u5927\u962a\u5e9c\u516b\u5c3e\u5e02","image":"http:\/\/www.shogi.or.jp\/images\/player\/pro\/275.jpg","lat":34.626816,"lng":135.60147709999998,"sex":"man"},{"no":"276","name":"\u6c38\u702c\u62d3\u77e2","birthplace":"\u795e\u5948\u5ddd\u770c\u6a2a\u6d5c\u5e02","image":"http:\/\/www.shogi.or.jp\/images\/player\/pro\/276.jpg","lat":35.4446185,"lng":139.6426529,"sex":"man"},{"no":"277","name":"\u963f\u90e8\u5065\u6cbb\u90ce","birthplace":"\u5c71\u5f62\u770c\u9152\u7530\u5e02","image":"http:\/\/www.shogi.or.jp\/images\/player\/pro\/277.jpg","lat":"38.91442720","lng":"139.83650950","sex":"man"},{"no":"278","name":"\u83c5\u4e95\u7adc\u4e5f","birthplace":"\u5ca1\u5c71\u770c\u5ca1\u5c71\u5e02","image":"http:\/\/www.shogi.or.jp\/images\/player\/pro\/278.jpg","lat":34.6550843,"lng":133.9200909,"sex":"man"},{"no":"279","name":"\u7267\u91ce\u5149\u5247","birthplace":"\u548c\u6b4c\u5c71\u770c\u548c\u6b4c\u5c71\u5e02","image":"http:\/\/www.shogi.or.jp\/images\/player\/pro\/279.jpg","lat":34.2302884,"lng":135.1712299,"sex":"man"},{"no":"280","name":"\u4f50\u3005\u6728\u52c7\u6c17","birthplace":"\u57fc\u7389\u770c\u4e09\u90f7\u5e02","image":"http:\/\/www.shogi.or.jp\/images\/player\/pro\/280.jpg","lat":"35.83014860","lng":"139.87227730","sex":"man"},{"no":"281","name":"\u8239\u6c5f\u6052\u5e73","birthplace":"\u5175\u5eab\u770c\u52a0\u53e4\u5ddd\u5e02","image":"http:\/\/www.shogi.or.jp\/images\/player\/pro\/281.jpg","lat":34.7568999,"lng":134.8416773,"sex":"man"},{"no":"282","name":"\u9580\u5009\u5553\u592a","birthplace":"\u6771\u4eac\u90fd\u8c4a\u5cf6\u533a","image":"http:\/\/www.shogi.or.jp\/images\/player\/pro\/282.jpg","lat":"35.72611720","lng":"139.71660770","sex":"man"},{"no":"283","name":"\u963f\u90e8\u5149\u7460","birthplace":"\u9752\u68ee\u770c\u5f18\u524d\u5e02","image":"http:\/\/www.shogi.or.jp\/images\/player\/pro\/283.jpg","lat":40.6030738,"lng":140.46442169999997,"sex":"man"},{"no":"284","name":"\u9ad8\u898b\u6cf0\u5730","birthplace":"\u795e\u5948\u5ddd\u770c\u6a2a\u6d5c\u5e02","image":"http:\/\/www.shogi.or.jp\/images\/player\/pro\/284.jpg","lat":35.4446185,"lng":139.6426529,"sex":"man"},{"no":"285","name":"\u85e4\u68ee\u54f2\u4e5f","birthplace":"\u6771\u4eac\u90fd\u5927\u7530\u533a","image":"http:\/\/www.shogi.or.jp\/images\/player\/pro\/285.jpg","lat":35.5613501,"lng":139.7165474,"sex":"man"},{"no":"286","name":"\u658e\u85e4\u614e\u592a\u90ce","birthplace":"\u5948\u826f\u770c\u5948\u826f\u5e02","image":"http:\/\/www.shogi.or.jp\/images\/player\/pro\/286.jpg","lat":"34.68510600","lng":"135.80500810","sex":"man"},{"no":"287","name":"\u516b\u4ee3\u5f25","birthplace":"\u9759\u5ca1\u770c\u8cc0\u8302\u90e1","image":"http:\/\/www.shogi.or.jp\/images\/player\/pro\/287.jpg","lat":"34.77167610","lng":"138.77535020","sex":"man"},{"no":"288","name":"\u4e0a\u6751\u4e98","birthplace":"\u6771\u4eac\u90fd\u4e2d\u91ce\u533a","image":"http:\/\/www.shogi.or.jp\/images\/player\/pro\/288.jpg","lat":35.7073484,"lng":139.66433809999998,"sex":"man"},{"no":"289","name":"\u77f3\u7530\u76f4\u88d5","birthplace":"\u5317\u6d77\u9053\u540d\u5bc4\u5e02","image":"http:\/\/www.shogi.or.jp\/images\/player\/pro\/289.jpg","lat":"44.35593760","lng":"142.46316690","sex":"man"},{"no":"290","name":"\u6e21\u8fba\u5927\u5922","birthplace":"\u6771\u4eac\u90fd\u6c5f\u6771\u533a","image":"http:\/\/www.shogi.or.jp\/images\/player\/pro\/290.jpg","lat":35.6730284,"lng":139.81746809999999,"sex":"man"},{"no":"291","name":"\u5343\u7530\u7fd4\u592a","birthplace":"\u5927\u962a\u5e9c\u7b95\u9762\u5e02","image":"http:\/\/www.shogi.or.jp\/images\/player\/pro\/291.jpg","lat":"34.82712970","lng":"135.47038450","sex":"man"},{"no":"292","name":"\u7af9\u5185\u96c4\u609f","birthplace":"\u5e83\u5cf6\u770c\u5e83\u5cf6\u5e02","image":"http:\/\/www.shogi.or.jp\/images\/player\/pro\/292.jpg","lat":34.3861968,"lng":132.4555198,"sex":"man"},{"no":"293","name":"\u77f3\u4e95\u5065\u592a\u90ce","birthplace":"\u5343\u8449\u770c\u5343\u8449\u5e02","image":"http:\/\/www.shogi.or.jp\/images\/player\/pro\/293.jpg","lat":35.607384499999995,"lng":140.1235949,"sex":"man"},{"no":"294","name":"\u4e09\u679a\u5802\u9054\u4e5f","birthplace":"\u5343\u8449\u770c\u6d66\u5b89\u5e02","image":"http:\/\/www.shogi.or.jp\/images\/player\/pro\/294.jpg","lat":"35.65315540","lng":"139.90191700","sex":"man"},{"no":"295","name":"\u661f\u91ce\u826f\u751f","birthplace":"\u57fc\u7389\u770c\u4e0a\u5c3e\u5e02","image":"http:\/\/www.shogi.or.jp\/images\/player\/pro\/295.jpg","lat":35.9773347,"lng":139.5936913,"sex":"man"},{"no":"296","name":"\u5bae\u672c\u5e83\u5fd7","birthplace":"\u548c\u6b4c\u5c71\u770c\u897f\u725f\u5a41\u90e1\u4e0a\u5bcc\u7530\u753a","image":"http:\/\/www.shogi.or.jp\/images\/player\/pro\/296.jpg","lat":"33.69619060","lng":"135.42894930","sex":"man"},{"no":"297","name":"\u5897\u7530\u5eb7\u5b8f","birthplace":"\u6771\u4eac\u90fd\u662d\u5cf6\u5e02","image":"http:\/\/www.shogi.or.jp\/images\/player\/pro\/297.jpg","lat":"35.70575470","lng":"139.35354790","sex":"man"},{"no":"298","name":"\u9ed2\u6ca2\u601c\u751f","birthplace":"\u57fc\u7389\u770c\u718a\u8c37\u5e02","image":"http:\/\/www.shogi.or.jp\/images\/player\/pro\/298.jpg","lat":"36.14731190","lng":"139.38864320","sex":"man"},{"no":"299","name":"\u4eca\u6cc9\u5065\u53f8","birthplace":"\u5e83\u5cf6\u770c\u798f\u5c71\u5e02","image":"http:\/\/www.shogi.or.jp\/images\/player\/pro\/299.jpg","lat":"34.48590170","lng":"133.36231530","sex":"man"},{"no":"300","name":"\u9752\u5d8b\u672a\u6765","birthplace":"\u9759\u5ca1\u770c\u4e09\u5cf6\u5e02","image":"http:\/\/www.shogi.or.jp\/images\/player\/pro\/300.jpg","lat":"35.11840280","lng":"138.91851160","sex":"man"},{"no":"301","name":"\u68b6\u6d66\u5b8f\u5b5d","birthplace":"\u6771\u4eac\u90fd\u65b0\u5bbf\u533a","image":"http:\/\/www.shogi.or.jp\/images\/player\/pro\/301.jpg","lat":35.6938372,"lng":139.7039102,"sex":"man"},{"no":"302","name":"\u9ad8\u91ce\u667a\u53f2","birthplace":"\u57fc\u7389\u770c\u5bcc\u58eb\u898b\u5e02","image":"http:\/\/www.shogi.or.jp\/images\/player\/pro\/302.jpg","lat":"35.85664400","lng":"139.54924000","sex":"man"},{"no":"303","name":"\u8fd1\u85e4\u8aa0\u4e5f","birthplace":"\u5343\u8449\u770c\u516b\u5343\u4ee3\u5e02","image":"http:\/\/www.shogi.or.jp\/images\/player\/pro\/303.jpg","lat":35.7225985,"lng":140.10014719999998,"sex":"man"},{"no":"304","name":"\u90fd\u6210\u7adc\u99ac","birthplace":"\u5bae\u5d0e\u770c\u5bae\u5d0e\u5e02","image":"http:\/\/www.shogi.or.jp\/images\/player\/pro\/304.jpg","lat":"31.90778920","lng":"131.42033020","sex":"man"},{"no":"305","name":"\u4e95\u51fa\u96bc\u5e73","birthplace":"\u795e\u5948\u5ddd\u770c\u6a2a\u6d5c\u5e02","image":"http:\/\/www.shogi.or.jp\/images\/player\/pro\/305.jpg","lat":35.4446185,"lng":139.6426529,"sex":"man"},{"no":"306","name":"\u4f50\u3005\u6728\u5927\u5730","birthplace":"\u9577\u5d0e\u770c\u5bfe\u99ac\u5e02","image":"http:\/\/www.shogi.or.jp\/images\/player\/pro\/306.jpg","lat":"34.20265910","lng":"129.28748990","sex":"man"},{"no":"307","name":"\u85e4\u4e95\u8061\u592a","birthplace":"\u611b\u77e5\u770c\u702c\u6238\u5e02","image":"http:\/\/www.shogi.or.jp\/images\/player\/pro\/307.jpg","lat":"35.22395740","lng":"137.08403160","sex":"man"},{"no":"308","name":"\u5927\u6a4b\u8cb4\u6d38","birthplace":"\u548c\u6b4c\u5c71\u770c\u65b0\u5bae\u5e02","image":"http:\/\/www.shogi.or.jp\/images\/player\/pro\/308.jpg","lat":"33.72420190","lng":"135.99253220","sex":"man"},{"no":"309","name":"\u897f\u7530\u62d3\u4e5f","birthplace":"\u4eac\u90fd\u5e9c\u4eac\u90fd\u5e02","image":"http:\/\/www.shogi.or.jp\/images\/player\/pro\/309.jpg","lat":35.0100665,"lng":135.7519639,"sex":"man"},{"no":"310","name":"\u6749\u672c\u548c\u967d","birthplace":"\u6771\u4eac\u90fd\u5927\u7530\u533a","image":"http:\/\/www.shogi.or.jp\/images\/player\/pro\/310.jpg","lat":35.5613501,"lng":139.7165474,"sex":"man"},{"no":"311","name":"\u658e\u85e4\u660e\u65e5\u6597","birthplace":"\u795e\u5948\u5ddd\u770c\u5ddd\u5d0e\u5e02","image":"http:\/\/www.shogi.or.jp\/images\/player\/pro\/311.jpg","lat":"35.52966650","lng":"139.70385070","sex":"man"},{"no":"312","name":"\u53e4\u68ee\u60a0\u592a","birthplace":"\u5927\u962a\u5e9c\u9ad8\u69fb\u5e02","image":"http:\/\/www.shogi.or.jp\/images\/player\/pro\/312.jpg","lat":34.8461111,"lng":135.61777379999998,"sex":"man"},{"no":"313","name":"\u9577\u8c37\u90e8\u6d69\u5e73","birthplace":"\u6803\u6728\u770c\u5c0f\u5c71\u5e02","image":"http:\/\/www.shogi.or.jp\/images\/player\/pro\/313.jpg","lat":"36.31464050","lng":"139.80008860","sex":"man"},{"no":"314","name":"\u6c60\u6c38\u5929\u5fd7","birthplace":"\u5927\u962a\u5e9c\u5927\u962a\u5e02","image":"http:\/\/www.shogi.or.jp\/images\/player\/pro\/314.jpg","lat":34.681025,"lng":135.5102871,"sex":"man"},{"no":"315","name":"\u672c\u7530\u594e","birthplace":"\u795e\u5948\u5ddd\u770c\u5ddd\u5d0e\u5e02","image":"http:\/\/www.shogi.or.jp\/images\/player\/pro\/315.jpg","lat":35.529616499999996,"lng":139.7043507,"sex":"man"},{"no":"316","name":"\u5c71\u672c\u535a\u5fd7","birthplace":"\u6771\u4eac\u90fd\u6c5f\u6771\u533a","image":"http:\/\/www.shogi.or.jp\/images\/player\/pro\/316.jpg","lat":35.6730284,"lng":139.81746809999999,"sex":"man"},{"no":"317","name":"\u51fa\u53e3\u82e5\u6b66","birthplace":"\u5175\u5eab\u770c\u660e\u77f3\u5e02","image":"http:\/\/www.shogi.or.jp\/images\/player\/pro\/317.jpg","lat":34.643007,"lng":134.99806189999998,"sex":"man"},{"no":"318","name":"\u9ed2\u7530\u5c2d\u4e4b","birthplace":"\u611b\u5a9b\u770c\u677e\u5c71\u5e02","image":"http:\/\/www.shogi.or.jp\/images\/player\/pro\/318.jpg","lat":"33.83915690","lng":"132.76557760","sex":"man"},{"no":"319","name":"\u6e21\u8fba\u548c\u53f2","birthplace":"\u6771\u4eac\u90fd\u65b0\u5bbf\u533a","image":"http:\/\/www.shogi.or.jp\/images\/player\/pro\/319.jpg","lat":35.6938372,"lng":139.7039102,"sex":"man"},{"no":"320","name":"\u77f3\u5ddd\u512a\u592a","birthplace":"\u4e09\u91cd\u770c\u4e09\u91cd\u90e1","image":"http:\/\/www.shogi.or.jp\/images\/player\/pro\/320.jpg","lat":"35.01995330","lng":"136.50703200","sex":"man"},{"no":"321","name":"\u6298\u7530\u7fd4\u543e","birthplace":"\u5927\u962a\u5e9c\u5927\u962a\u5e02","image":"http:\/\/www.shogi.or.jp\/images\/player\/pro\/321.jpg","lat":34.681025,"lng":135.5102871,"sex":"man"},{"no":"322","name":"\u670d\u90e8\u614e\u4e00\u90ce","birthplace":"\u5bcc\u5c71\u770c\u5bcc\u5c71\u5e02","image":"http:\/\/www.shogi.or.jp\/images\/player\/pro\/322.jpg","lat":36.695965099999995,"lng":137.21418219999998,"sex":"man"},{"no":"323","name":"\u8c37\u5408\u5ee3\u7d00","birthplace":"\u6771\u4eac\u90fd\u4e2d\u592e\u533a","image":"http:\/\/www.shogi.or.jp\/images\/player\/pro\/323.jpg","lat":35.6706608,"lng":139.7726079,"sex":"man"},{"no":"1","name":"\u95a2\u6839\u7d00\u4ee3\u5b50","birthplace":"\u7fa4\u99ac\u770c\u524d\u6a4b\u5e02","image":"http:\/\/www.shogi.or.jp\/images\/player\/lady\/1.jpg","lat":"36.38948390","lng":"139.06342760","sex":"woman"},{"no":"2","name":"\u8c37\u5ddd\u6cbb\u6075","birthplace":"\u57fc\u7389\u770c","image":"http:\/\/www.shogi.or.jp\/images\/player\/lady\/2.jpg","lat":35.9250533,"lng":139.48629259999998,"sex":"woman"},{"no":"5","name":"\u9577\u6ca2\u5343\u548c\u5b50","birthplace":"\u9577\u91ce\u770c\u677e\u672c\u5e02","image":"http:\/\/www.shogi.or.jp\/images\/player\/lady\/5.jpg","lat":"36.23805990","lng":"137.97201400","sex":"woman"},{"no":"6","name":"\u5c71\u7530\u4e45\u7f8e","birthplace":"\u7fa4\u99ac\u770c\u592a\u7530\u5e02","image":"http:\/\/www.shogi.or.jp\/images\/player\/lady\/6.jpg","lat":"36.29112160","lng":"139.37547030","sex":"woman"},{"no":"7","name":"\u6e05\u6c34\u5e02\u4ee3","birthplace":"\u6771\u4eac\u90fd\u6771\u6751\u5c71\u5e02","image":"http:\/\/www.shogi.or.jp\/images\/player\/lady\/7.jpg","lat":"35.75456580","lng":"139.46829990","sex":"woman"},{"no":"9","name":"\u658e\u7530\u6674\u5b50","birthplace":"\u795e\u5948\u5ddd\u770c\u6a2a\u9808\u8cc0\u5e02","image":"http:\/\/www.shogi.or.jp\/images\/player\/lady\/9.jpg","lat":35.2812929,"lng":139.6727001,"sex":"woman"},{"no":"10","name":"\u77f3\u9ad8\u6f84\u6075","birthplace":"\u5317\u6d77\u9053\u6c5f\u5dee\u753a","image":"http:\/\/www.shogi.or.jp\/images\/player\/lady\/10.jpg","lat":"41.86891130","lng":"140.12725760","sex":"woman"},{"no":"11","name":"\u690d\u6751\u771f\u7406","birthplace":"\u9999\u5ddd\u770c\u9ad8\u677e\u5e02","image":"http:\/\/www.shogi.or.jp\/images\/player\/lady\/11.jpg","lat":34.3426846,"lng":134.04731239999998,"sex":"woman"},{"no":"12","name":"\u771f\u7530\u5f69\u5b50","birthplace":"\u798f\u5cf6\u770c\u3044\u308f\u304d\u5e02","image":"http:\/\/www.shogi.or.jp\/images\/player\/lady\/12.jpg","lat":"37.05042120","lng":"140.88768400","sex":"woman"},{"no":"13","name":"\u9ad8\u6a4b\u548c","birthplace":"\u795e\u5948\u5ddd\u770c\u85e4\u6ca2\u5e02","image":"http:\/\/www.shogi.or.jp\/images\/player\/lady\/13.jpg","lat":"35.33885860","lng":"139.49112430","sex":"woman"},{"no":"14","name":"\u672c\u7530\u5c0f\u767e\u5408","birthplace":"\u8328\u57ce\u770c\u6c34\u6238\u5e02","image":"http:\/\/www.shogi.or.jp\/images\/player\/lady\/14.jpg","lat":36.3658082,"lng":140.4720959,"sex":"woman"},{"no":"15","name":"\u4e45\u6d25\u77e5\u5b50","birthplace":"\u5317\u6d77\u9053\u672d\u5e4c\u5e02","image":"http:\/\/www.shogi.or.jp\/images\/player\/lady\/15.jpg","lat":43.0552316,"lng":141.3415776,"sex":"woman"},{"no":"16","name":"\u77e2\u5185\u7406\u7d75\u5b50","birthplace":"\u57fc\u7389\u770c\u884c\u7530\u5e02","image":"http:\/\/www.shogi.or.jp\/images\/player\/lady\/16.jpg","lat":"36.13889560","lng":"139.45573440","sex":"woman"},{"no":"17","name":"\u5343\u8449\u6dbc\u5b50","birthplace":"\u5bcc\u5c71\u770c","image":"http:\/\/www.shogi.or.jp\/images\/player\/lady\/17.jpg","lat":36.695965099999995,"lng":137.21418219999998,"sex":"woman"},{"no":"18","name":"\u4f0a\u85e4\u660e\u65e5\u9999","birthplace":"\u6771\u4eac\u90fd","image":"http:\/\/www.shogi.or.jp\/images\/player\/lady\/18.jpg","lat":35.6465246,"lng":139.65374949999998,"sex":"woman"},{"no":"19","name":"\u7af9\u90e8\u3055\u3086\u308a","birthplace":"\u795e\u5948\u5ddd\u770c\u9017\u5b50\u5e02","image":"http:\/\/www.shogi.or.jp\/images\/player\/lady\/19.jpg","lat":35.2955609,"lng":139.58090579999998,"sex":"woman"},{"no":"20","name":"\u65e9\u6c34\u5343\u7d17","birthplace":"\u6771\u4eac\u90fd\u76ee\u9ed2\u533a","image":"http:\/\/www.shogi.or.jp\/images\/player\/lady\/20.jpg","lat":"35.64141800","lng":"139.69818760","sex":"woman"},{"no":"21","name":"\u7532\u6590\u667a\u7f8e","birthplace":"\u77f3\u5ddd\u770c\u4e03\u5c3e\u5e02","image":"http:\/\/www.shogi.or.jp\/images\/player\/lady\/21.jpg","lat":"37.04310160","lng":"136.96751740","sex":"woman"},{"no":"22","name":"\u5b89\u98df\u7dcf\u5b50","birthplace":"\u6771\u4eac\u90fd\u6b66\u8535\u91ce\u5e02","image":"http:\/\/www.shogi.or.jp\/images\/player\/lady\/22.jpg","lat":35.717733599999995,"lng":139.56675969999998,"sex":"woman"},{"no":"23","name":"\u85e4\u7530\u7dbe","birthplace":"\u6771\u4eac\u90fd\u5927\u7530\u533a","image":"http:\/\/www.shogi.or.jp\/images\/player\/lady\/23.jpg","lat":35.5613501,"lng":139.7165474,"sex":"woman"},{"no":"24","name":"\u91ce\u7530\u6fa4\u5f69\u4e43","birthplace":"\u57fc\u7389\u770c\u5ddd\u8d8a\u5e02","image":"http:\/\/www.shogi.or.jp\/images\/player\/lady\/24.jpg","lat":35.9250533,"lng":139.48629259999998,"sex":"woman"},{"no":"25","name":"\u5c71\u7530\u6731\u672a","birthplace":"\u5ca1\u5c71\u770c\u7389\u91ce\u5e02","image":"http:\/\/www.shogi.or.jp\/images\/player\/lady\/25.jpg","lat":"34.49194540","lng":"133.94598960","sex":"woman"},{"no":"26","name":"\u4e0a\u7530\u521d\u7f8e","birthplace":"\u6771\u4eac\u90fd\u5c0f\u5e73\u5e02","image":"http:\/\/www.shogi.or.jp\/images\/player\/lady\/26.jpg","lat":"35.72843300","lng":"139.47752240","sex":"woman"},{"no":"27","name":"\u5742\u6771\u9999\u83dc\u5b50","birthplace":"\u5e83\u5cf6\u770c","image":"http:\/\/www.shogi.or.jp\/images\/player\/lady\/27.jpg","lat":34.4858517,"lng":133.3628153,"sex":"woman"},{"no":"28","name":"\u6751\u7530\u667a\u7a42","birthplace":"\u5175\u5eab\u770c\u9ad8\u7802\u5e02","image":"http:\/\/www.shogi.or.jp\/images\/player\/lady\/28.jpg","lat":34.7661543,"lng":134.7909408,"sex":"woman"},{"no":"29","name":"\u9234\u6728\u74b0\u90a3","birthplace":"\u5343\u8449\u770c\u5bcc\u6d25\u5e02","image":"http:\/\/www.shogi.or.jp\/images\/player\/lady\/29.jpg","lat":"35.30411970","lng":"139.85710720","sex":"woman"},{"no":"30","name":"\u4e2d\u6751\u771f\u68a8\u82b1","birthplace":"\u795e\u5948\u5ddd\u770c","image":"http:\/\/www.shogi.or.jp\/images\/player\/lady\/30.jpg","lat":35.4446185,"lng":139.6426529,"sex":"woman"},{"no":"31","name":"\u8c9e\u5347\u5357","birthplace":"\u6771\u4eac\u90fd\u5e9c\u4e2d\u5e02","image":"http:\/\/www.shogi.or.jp\/images\/player\/lady\/31.jpg","lat":35.669134299999996,"lng":139.4781108,"sex":"woman"},{"no":"32","name":"\u5ca9\u6839\u5fcd","birthplace":"\u5927\u962a\u5e9c\u5927\u962a\u5e02","image":"http:\/\/www.shogi.or.jp\/images\/player\/lady\/32.jpg","lat":34.681025,"lng":135.5102871,"sex":"woman"},{"no":"33","name":"\u91cc\u898b\u9999\u5948","birthplace":"\u5cf6\u6839\u770c\u51fa\u96f2\u5e02","image":"http:\/\/www.shogi.or.jp\/images\/player\/lady\/33.jpg","lat":"35.36702340","lng":"132.75468360","sex":"woman"},{"no":"34","name":"\u4e95\u9053\u5343\u5c0b","birthplace":"\u77f3\u5ddd\u770c\u73e0\u6d32\u5e02","image":"http:\/\/www.shogi.or.jp\/images\/player\/lady\/34.jpg","lat":"37.43634680","lng":"137.26043580","sex":"woman"},{"no":"35","name":"\u5ba4\u7530\u4f0a\u7dd2","birthplace":"\u611b\u77e5\u770c\u6625\u65e5\u4e95\u5e02","image":"http:\/\/www.shogi.or.jp\/images\/player\/lady\/35.jpg","lat":"35.24766780","lng":"136.97224520","sex":"woman"},{"no":"36","name":"\u4f0a\u5948\u5ddd\u611b\u83d3","birthplace":"\u5343\u8449\u770c\u6728\u66f4\u6d25\u5e02","image":"http:\/\/www.shogi.or.jp\/images\/player\/lady\/36.jpg","lat":35.3811757,"lng":139.9253626,"sex":"woman"},{"no":"37","name":"\u5bae\u5b97\u7d2b\u91ce","birthplace":"\u8328\u57ce\u770c\u53e4\u6cb3\u5e02","image":"http:\/\/www.shogi.or.jp\/images\/player\/lady\/37.jpg","lat":"36.17823580","lng":"139.75536220","sex":"woman"},{"no":"38","name":"\u4e2d\u6751\u6843\u5b50","birthplace":"\u57fc\u7389\u770c\u5165\u9593\u5e02","image":"http:\/\/www.shogi.or.jp\/images\/player\/lady\/38.jpg","lat":"35.83594300","lng":"139.39112360","sex":"woman"},{"no":"39","name":"\u5c71\u53e3\u6075\u68a8\u5b50","birthplace":"\u9ce5\u53d6\u770c","image":"http:\/\/www.shogi.or.jp\/images\/player\/lady\/39.jpg","lat":35.4943464,"lng":134.22258169999998,"sex":"woman"},{"no":"40","name":"\u9999\u5ddd\u611b\u751f","birthplace":"\u6771\u4eac\u90fd\u8abf\u5e03\u5e02","image":"http:\/\/www.shogi.or.jp\/images\/player\/lady\/40.jpg","lat":35.650666199999996,"lng":139.5414926,"sex":"woman"},{"no":"41","name":"\u6e21\u8fba\u5f25\u751f","birthplace":"\u65b0\u6f5f\u770c\u5357\u9b5a\u6cbc\u5e02","image":"http:\/\/www.shogi.or.jp\/images\/player\/lady\/41.jpg","lat":37.0654909,"lng":138.87656719999998,"sex":"woman"},{"no":"42","name":"\u5ba4\u8c37\u7531\u7d00","birthplace":"\u5927\u962a\u5e9c\u5927\u962a\u72ed\u5c71\u5e02","image":"http:\/\/www.shogi.or.jp\/images\/player\/lady\/42.jpg","lat":"34.50379520","lng":"135.55569220","sex":"woman"},{"no":"43","name":"\u5317\u5c3e\u307e\u3069\u304b","birthplace":"\u6771\u4eac\u90fd","image":"http:\/\/www.shogi.or.jp\/images\/player\/lady\/43.jpg","lat":35.6465246,"lng":139.65374949999998,"sex":"woman"},{"no":"44","name":"\u9577\u8c37\u5ddd\u512a\u8cb4","birthplace":"\u5175\u5eab\u770c","image":"http:\/\/www.shogi.or.jp\/images\/player\/lady\/44.jpg","lat":"34.81514880","lng":"134.68535480","sex":"woman"},{"no":"46","name":"\u5317\u6751\u6842\u9999","birthplace":"\u4eac\u90fd\u5e9c\u5b87\u6cbb\u5e02","image":"http:\/\/www.shogi.or.jp\/images\/player\/lady\/46.jpg","lat":34.8844518,"lng":135.80033459999999,"sex":"woman"},{"no":"47","name":"\u76f8\u5ddd\u6625\u9999","birthplace":"\u6771\u4eac\u90fd","image":"http:\/\/www.shogi.or.jp\/images\/player\/lady\/47.jpg","lat":35.6465246,"lng":139.65374949999998,"sex":"woman"},{"no":"48","name":"\u98ef\u91ce\u611b","birthplace":"\u6771\u4eac\u90fd\u4e16\u7530\u8c37\u533a","image":"http:\/\/www.shogi.or.jp\/images\/player\/lady\/48.jpg","lat":35.6465246,"lng":139.65374949999998,"sex":"woman"},{"no":"49","name":"\u5c71\u6839\u3053\u3068\u307f","birthplace":"\u611b\u5a9b\u770c\u677e\u5c71\u5e02","image":"http:\/\/www.shogi.or.jp\/images\/player\/lady\/49.jpg","lat":33.8391069,"lng":132.7660776,"sex":"woman"},{"no":"50","name":"\u548c\u7530\u3042\u304d","birthplace":"\u5317\u6d77\u9053\u672d\u5e4c\u5e02","image":"http:\/\/www.shogi.or.jp\/images\/player\/lady\/50.jpg","lat":43.0552316,"lng":141.3415776,"sex":"woman"},{"no":"51","name":"\u585a\u7530\u6075\u68a8\u82b1","birthplace":"\u6771\u4eac\u90fd\u6749\u4e26\u533a","image":"http:\/\/www.shogi.or.jp\/images\/player\/lady\/51.jpg","lat":35.6995236,"lng":139.6368852,"sex":"woman"},{"no":"52","name":"\u4f0a\u85e4\u6c99\u6075","birthplace":"\u6771\u4eac\u90fd\u6b66\u8535\u91ce\u5e02","image":"http:\/\/www.shogi.or.jp\/images\/player\/lady\/52.jpg","lat":35.717733599999995,"lng":139.56675969999998,"sex":"woman"},{"no":"53","name":"\u4e2d\u6fa4\u6c99\u8036","birthplace":"\u611b\u77e5\u770c\u4e00\u5bae\u5e02","image":"http:\/\/www.shogi.or.jp\/images\/player\/lady\/53.jpg","lat":35.3039369,"lng":136.8029598,"sex":"woman"},{"no":"54","name":"\u9ad8\u6d5c\u611b\u5b50","birthplace":"\u5927\u962a\u5e02\u798f\u5cf6\u533a","image":"http:\/\/www.shogi.or.jp\/images\/player\/lady\/54.jpg","lat":34.6922867,"lng":135.47270089999998,"sex":"woman"},{"no":"55","name":"\u5c71\u53e3\u7d75\u7f8e\u83dc","birthplace":"\u5bae\u5d0e\u770c\u90fd\u57ce\u5e02","image":"http:\/\/www.shogi.or.jp\/images\/player\/lady\/55.jpg","lat":"31.71959010","lng":"131.06162400","sex":"woman"},{"no":"56","name":"\u91cc\u898b\u54b2\u7d00","birthplace":"\u5cf6\u6839\u770c\u51fa\u96f2\u5e02","image":"http:\/\/www.shogi.or.jp\/images\/player\/lady\/56.jpg","lat":35.3669734,"lng":132.75518359999998,"sex":"woman"},{"no":"57","name":"\u77f3\u672c\u3055\u304f\u3089","birthplace":"\u5927\u962a\u5e9c\u5439\u7530\u5e02","image":"http:\/\/www.shogi.or.jp\/images\/player\/lady\/57.jpg","lat":"34.75925190","lng":"135.51677090","sex":"woman"},{"no":"58","name":"\u983c\u672c\u5948\u83dc","birthplace":"\u6771\u4eac\u90fd\u76ee\u9ed2\u533a","image":"http:\/\/www.shogi.or.jp\/images\/player\/lady\/58.jpg","lat":35.641368,"lng":139.6986876,"sex":"woman"},{"no":"60","name":"\u6b66\u5bcc\u793c\u8863","birthplace":"\u4f50\u8cc0\u770c\u4f50\u8cc0\u5e02","image":"http:\/\/www.shogi.or.jp\/images\/player\/lady\/60.jpg","lat":"33.26348150","lng":"130.30085720","sex":"woman"},{"no":"61","name":"\u5c0f\u9ad8\u4f50\u5b63\u5b50","birthplace":"\u5343\u8449\u770c\u4f50\u5009\u5e02","image":"http:\/\/www.shogi.or.jp\/images\/player\/lady\/61.jpg","lat":"35.72368850","lng":"140.22388340","sex":"woman"},{"no":"62","name":"\u6c34\u753a\u307f\u3086","birthplace":"\u798f\u5ca1\u770c\u798f\u5ca1\u5e02","image":"http:\/\/www.shogi.or.jp\/images\/player\/lady\/62.jpg","lat":33.5913101,"lng":130.4153782,"sex":"woman"},{"no":"63","name":"\u85e4\u4e95\u5948\u3005","birthplace":"\u4eac\u90fd\u5e9c\u5b87\u6cbb\u5e02","image":"http:\/\/www.shogi.or.jp\/images\/player\/lady\/63.jpg","lat":34.8844518,"lng":135.80033459999999,"sex":"woman"},{"no":"64","name":"\u52a0\u85e4\u572d","birthplace":"\u8328\u57ce\u770c\u65e5\u7acb\u5e02","image":"http:\/\/www.shogi.or.jp\/images\/player\/lady\/64.jpg","lat":"36.59913110","lng":"140.65046100","sex":"woman"},{"no":"65","name":"\u52a0\u85e4\u7d50\u674e\u611b","birthplace":"\u5bae\u57ce\u770c\u4ed9\u53f0\u5e02","image":"http:\/\/www.shogi.or.jp\/images\/player\/lady\/65.jpg","lat":38.2690255,"lng":140.87067169999997,"sex":"woman"},{"no":"66","name":"\u8107\u7530\u83dc\u3005\u5b50","birthplace":"\u611b\u77e5\u770c\u4e00\u5bae\u5e02","image":"http:\/\/www.shogi.or.jp\/images\/player\/lady\/66.jpg","lat":35.3039369,"lng":136.8029598,"sex":"woman"},{"no":"67","name":"\u52a0\u85e4\u6843\u5b50","birthplace":"\u9759\u5ca1\u770c\u7267\u4e4b\u539f\u5e02","image":"http:\/\/www.shogi.or.jp\/images\/player\/lady\/67.jpg","lat":"34.74002820","lng":"138.22464360","sex":"woman"},{"no":"68","name":"\u5c71\u53e3\u4ec1\u5b50\u68a8","birthplace":"\u5c90\u961c\u770c\u5c90\u961c\u5e02","image":"http:\/\/www.shogi.or.jp\/images\/player\/lady\/68.jpg","lat":35.423186699999995,"lng":136.76144509999997,"sex":"woman"},{"no":"69","name":"\u548c\u7530\u306f\u306a","birthplace":"\u57fc\u7389\u770c\u548c\u5149\u5e02","image":"http:\/\/www.shogi.or.jp\/images\/player\/lady\/69.jpg","lat":"35.78118530","lng":"139.60582360","sex":"woman"},{"no":"70","name":"\u91ce\u539f\u672a\u862d","birthplace":"\u5bcc\u5c71\u770c\u5bcc\u5c71\u5e02","image":"http:\/\/www.shogi.or.jp\/images\/player\/lady\/70.jpg","lat":36.695965099999995,"lng":137.21418219999998,"sex":"woman"}]
